Case,Cone_Angle,Omega_RPM,Pitch_Angle,Vz_ms,Avg_Fpx,Avg_Fpy,Avg_Fpz,Avg_Mpx,Avg_Mpy,Avg_Mpz,Cd,Cl,CmPitch,CmRoll,CmYaw,Cs,,,,,,,
10_360_-7,-10,360,-7,2,0.01311951,0.012138085,0.079341608,-3.28E-05,-0.005209321,0.000731392,2.15113,0.3700275,1.870974,0.2150035,-0.01982218,-0.2969639,,,,,,,
10_390_-7,-10,390,-7,2,0.012879775,0.011860027,0.078817671,3.47E-05,-0.005206398,0.000654951,2.138673,0.3639092,1.872012,0.1812246,0.002822226,-0.2851462,,,,,,,
10_420_-7,-10,420,-7,2,0.012642126,0.011434932,0.078000386,9.84E-05,-0.005146158,0.000569929,2.118523,0.3576471,1.852919,0.14403,0.02400843,-0.2691423,,,,,,,
10_540_-7,-10,540,-7,3,0.029598159,0.027392565,0.178438097,-8.30E-05,-0.011716204,0.001649261,2.146797,0.3673044,1.866709,0.223792,-0.01980094,-0.3033777,,,,,,,
10_585_-7,-10,585,-7,3,0.029090121,0.026694976,0.177073904,6.81E-05,-0.011687095,0.001468033,2.131837,0.3614422,1.863861,0.1896302,0.002938886,-0.2914503,,,,,,,
10_630_-7,-10,630,-7,3,0.028653944,0.025566032,0.174724983,0.000205718,-0.011496442,0.001264004,2.105427,0.3562242,1.835937,0.1514781,0.02348903,-0.274109,,,,,,,
10_360_-5,-10,360,-5,2,0.015027276,0.011132978,0.085994692,-6.44E-05,-0.00583281,0.000689098,2.328132,0.4205101,2.090214,0.1991549,-0.03034947,-0.2703994,,,,,,,
10_390_-5,-10,390,-5,2,0.014990622,0.011074711,0.086237285,9.25E-06,-0.00592365,0.000628927,2.335961,0.4199352,2.124194,0.1709327,-0.005448648,-0.2644745,,,,,,,
10_420_-5,-10,420,-5,2,0.014871648,0.01086831,0.086347425,8.14E-05,-0.005972298,0.00056203,2.340269,0.4169527,2.14318,0.1401474,0.01888257,-0.2543463,,,,,,,
10_540_-5,-10,540,-5,3,0.033946888,0.025199249,0.193468402,-0.000148858,-0.013122751,0.001561379,2.324909,0.4186211,2.087025,0.2090943,-0.02970248,-0.2774891,,,,,,,
10_585_-5,-10,585,-5,3,0.033786095,0.024980616,0.193836509,1.99E-05,-0.013310377,0.001419384,2.330366,0.4169462,2.118052,0.1809703,-0.004100319,-0.2712766,,,,,,,
10_630_-5,-10,630,-5,3,0.033504158,0.024469948,0.193936557,0.000182508,-0.013406021,0.001260944,2.332677,0.4136695,2.134583,0.1501034,0.02048135,-0.2613724,,,,,,,
10_360_-3,-10,360,-3,2,0.017021787,0.009487972,0.092933598,-0.000100292,-0.006455551,0.00059463,2.512819,0.4726075,2.308903,0.1648499,-0.0425183,-0.2272023,,,,,,,
10_390_-3,-10,390,-3,2,0.01721389,0.009595935,0.093829833,-2.24E-05,-0.006631512,0.000545535,2.537976,0.4780416,2.372823,0.1402965,-0.01600392,-0.2256621,,,,,,,
10_420_-3,-10,420,-3,2,0.01734013,0.009563924,0.094711708,5.22E-05,-0.006774964,0.000490041,2.562737,0.481588,2.425138,0.1132999,0.009274527,-0.2200769,,,,,,,
10_540_-3,-10,540,-3,3,0.038473295,0.021536668,0.209101189,-0.000228152,-0.014515246,0.001355345,2.51029,0.4714606,2.304947,0.1758591,-0.0417917,-0.2344848,,,,,,,
10_585_-3,-10,585,-3,3,0.038870097,0.02175933,0.210899116,-5.03E-05,-0.014898077,0.001237956,2.53261,0.4763477,2.366533,0.1513939,-0.01468723,-0.2334266,,,,,,,
10_630_-3,-10,630,-3,3,0.039133722,0.021659588,0.212724953,0.000121114,-0.015204543,0.001104369,2.55527,0.4795574,2.416009,0.1242073,0.01133497,-0.22829,,,,,,,
10_360_-1,-10,360,-1,2,0.019057893,0.007105401,0.100285306,-0.000145863,-0.007095172,0.000439524,2.708316,0.5259614,2.533081,0.1088866,-0.05807956,-0.1640522,,,,,,,
10_390_-1,-10,390,-1,2,0.019507124,0.007349059,0.101748462,-6.45E-05,-0.007356657,0.0003961,2.748461,0.5381439,2.627028,0.08581219,-0.0303276,-0.1659401,,,,,,,
10_420_-1,-10,420,-1,2,0.019901447,0.007454115,0.103368544,1.25E-05,-0.007589449,0.000347415,2.792768,0.548769,2.710718,0.06074805,-0.004150357,-0.1637777,,,,,,,
10_540_-1,-10,540,-1,3,0.043115383,0.016240217,0.225705222,-0.00033112,-0.015958654,0.001010936,2.70699,0.525838,2.530474,0.1203084,-0.05765013,-0.17153,,,,,,,
10_585_-1,-10,585,-1,3,0.044096567,0.016817394,0.22870616,-0.000143541,-0.016530431,0.000908767,2.743476,0.5375666,2.621584,0.09771302,-0.02901432,-0.1744558,,,,,,,
10_630_-1,-10,630,-1,3,0.044948312,0.017078868,0.232138727,3.23E-05,-0.017041125,0.000794464,2.785076,0.5476863,2.70301,0.07305158,-0.002267048,-0.173296,,,,,,,
10_360_0,-10,360,0,2,0.019948796,0.005611524,0.104173083,-0.000171751,-0.007426447,0.000339129,2.811753,0.5494027,2.649076,0.07413332,-0.06675309,-0.1256257,,,,,,,
10_390_0,-10,390,0,2,0.020529153,0.005932894,0.105840491,-8.58E-05,-0.007720896,0.000293013,2.857202,0.5649584,2.754575,0.05007868,-0.03730362,-0.1295773,,,,,,,
10_420_0,-10,420,0,2,0.021069738,0.006057354,0.107736403,-5.81E-06,-0.007988296,0.000243958,2.908745,0.5794187,2.850337,0.02492466,-0.009989613,-0.128025,,,,,,,
10_540_0,-10,540,0,3,0.045161673,0.012841081,0.234495521,-0.000388063,-0.016705247,0.000785145,2.811144,0.5498448,2.64696,0.08540525,-0.06622064,-0.1323489,,,,,,,
10_585_0,-10,585,0,3,0.046453561,0.013617159,0.23793263,-0.000191053,-0.017350301,0.000677786,2.852673,0.5651683,2.749514,0.06196709,-0.03603124,-0.137642,,,,,,,
10_630_0,-10,630,0,3,0.047656677,0.013896754,0.242046596,-9.57E-06,-0.017942608,0.000562947,2.90224,0.5794196,2.843613,0.03729235,-0.00833746,-0.13681,,,,,,,
10_360_1,-10,360,1,2,0.020898176,0.003886095,0.107785185,-0.000196242,-0.007719925,0.000218557,2.907506,0.5752856,2.751544,0.03398862,-0.07459579,-0.08215431,,,,,,,
10_390_1,-10,390,1,2,0.021641066,0.004216415,0.109742785,-0.000110369,-0.008057779,0.000168055,2.960578,0.5952692,2.872215,0.008645165,-0.04504145,-0.08676667,,,,,,,
10_420_1,-10,420,1,2,0.022333812,0.004334545,0.112072701,-3.15E-05,-0.008376966,0.000115301,3.023598,0.6138567,2.986129,-0.0174389,-0.01796908,-0.0853734,,,,,,,
10_540_1,-10,540,1,3,0.047417078,0.008943746,0.242982227,-0.000450638,-0.017385178,0.000511454,2.911453,0.5771519,2.752917,0.04490238,-0.07531428,-0.08843854,,,,,,,
10_585_1,-10,585,1,3,0.049034024,0.009729651,0.246828094,-0.000250507,-0.018120035,0.000393532,2.957735,0.596361,2.869446,0.02004387,-0.04453809,-0.09424036,,,,,,,
10_630_1,-10,630,1,3,0.050569424,0.010017455,0.251893665,-7.11E-05,-0.018828367,0.000271224,3.018527,0.6146045,2.981686,-0.005420602,-0.01702962,-0.09385407,,,,,,,
10_360_3,-10,360,3,2,0.022203104,0.000262799,0.115079946,-0.000229747,-0.008294425,-6.01E-05,3.102025,0.6109912,2.952697,-0.05921424,-0.08477104,0.01094562,,,,,,,
10_390_3,-10,390,3,2,0.023576696,0.000523479,0.117799301,-0.000161079,-0.008751982,-0.00011372,3.174883,0.6487346,3.115456,-0.08555999,-0.06121491,0.00662963,,,,,,,
10_420_3,-10,420,3,2,0.024539863,0.000600231,0.120861177,-8.12E-05,-0.009161494,-0.000180175,3.257336,0.6745728,3.261189,-0.1159129,-0.03357963,0.008532263,,,,,,,
10_540_3,-10,540,3,3,0.050069561,0.000943654,0.258653456,-0.000488124,-0.018632748,-0.000141259,3.097581,0.6091182,2.947649,-0.05330705,-0.07982907,0.003715545,,,,,,,
10_585_3,-10,585,3,3,0.053446081,0.001420407,0.264845611,-0.000360737,-0.019670592,-0.000246349,3.17126,0.6502784,3.111696,-0.07583816,-0.06042457,6.10E-06,,,,,,,
10_630_3,-10,630,3,3,0.055608263,0.001591135,0.271601499,-0.000178644,-0.020580249,-0.000398759,3.252054,0.6760031,3.25551,-0.1055042,-0.03231924,0.001246831,,,,,,,
10_360_5,-10,360,5,2,0.023550145,-0.003372045,0.120854258,-0.000329987,-0.008768297,-0.000376844,3.254825,0.6491631,3.118086,-0.1699648,-0.119419,0.107075,,,,,,,
10_390_5,-10,390,5,2,0.025278206,-0.003544338,0.125723908,-0.000209937,-0.009411639,-0.000432941,3.385939,0.6967596,3.34711,-0.1945224,-0.07706113,0.1118968,,,,,,,
10_420_5,-10,420,5,2,0.026566441,-0.003591989,0.129731133,-0.000130024,-0.009924304,-0.000519209,3.493562,0.7315399,3.529135,-0.2314954,-0.04927329,0.1165341,,,,,,,
10_540_5,-10,540,5,3,0.053285646,-0.007433042,0.271088758,-0.000730989,-0.019658264,-0.000848343,3.24404,0.6494328,3.107238,-0.1635424,-0.1174404,0.1024273,,,,,,,
10_585_5,-10,585,5,3,0.057313085,-0.007841454,0.282779474,-0.000468407,-0.021160752,-0.000972266,3.383963,0.6984164,3.344914,-0.1866928,-0.07622077,0.1072107,,,,,,,
10_630_5,-10,630,5,3,0.060213586,-0.007911259,0.291636604,-0.000285402,-0.022299416,-0.001166526,3.489685,0.7331074,3.52463,-0.2225946,-0.04784255,0.1108371,,,,,,,
5_360_-7,-5,360,-7,2,0.006770229,0.012959781,0.088197633,-0.000171059,-0.005793016,0.000813135,2.39191,0.2022115,2.080465,0.2471738,-0.06451037,-0.3213694,,,,,,,
5_390_-7,-5,390,-7,2,0.006726126,0.012508917,0.087798068,-0.000118924,-0.005794204,0.000735712,2.383063,0.2007316,2.083457,0.212989,-0.04676402,-0.3049921,,,,,,,
5_420_-7,-5,420,-7,2,0.006708651,0.011935019,0.087153389,-6.61E-05,-0.005736867,0.000649181,2.367922,0.1996355,2.066019,0.1751181,-0.0288267,-0.2850554,,,,,,,
5_540_-7,-5,540,-7,3,0.01539904,0.02927503,0.198487047,-0.000404874,-0.013034539,0.001838973,2.388371,0.2000451,2.076563,0.2562431,-0.06697864,-0.3276744,,,,,,,
5_585_-7,-5,585,-7,3,0.015379241,0.028176608,0.197143752,-0.000281269,-0.012984641,0.001653113,2.373949,0.1994491,2.070911,0.2211829,-0.04811303,-0.3109411,,,,,,,
5_630_-7,-5,630,-7,3,0.015559007,0.026804644,0.195195558,-0.00016362,-0.01281083,0.001454166,2.352586,0.2009078,2.046097,0.1838255,-0.03019706,-0.2908219,,,,,,,
5_360_-5,-5,360,-5,2,0.007861384,0.012100526,0.095960789,-0.000213377,-0.006501496,0.000780945,2.598619,0.2321078,2.329596,0.2332946,-0.07892097,-0.296997,,,,,,,
5_390_-5,-5,390,-5,2,0.007919115,0.011983481,0.096429989,-0.000157672,-0.006615108,0.000727029,2.612823,0.2336598,2.372073,0.207241,-0.05979745,-0.2893912,,,,,,,
5_420_-5,-5,420,-5,2,0.008055664,0.011688155,0.096552594,-0.000108149,-0.006654874,0.000665998,2.617891,0.2371475,2.388607,0.1780423,-0.0429453,-0.2765565,,,,,,,
5_540_-5,-5,540,-5,3,0.017854453,0.027492672,0.216032671,-0.000493586,-0.014640331,0.001778244,2.596458,0.230076,2.328103,0.2442741,-0.08056446,-0.3050172,,,,,,,
5_585_-5,-5,585,-5,3,0.018037984,0.027157693,0.21671818,-0.000369338,-0.01486077,0.001647415,2.605966,0.2321746,2.364714,0.2177767,-0.06150485,-0.2972514,,,,,,,
5_630_-5,-5,630,-5,3,0.018728055,0.02635443,0.216004186,-0.000263233,-0.014848937,0.001504285,2.599089,0.2401522,2.36521,0.1885783,-0.04538492,-0.2834016,,,,,,,
5_360_-3,-5,360,-3,2,0.009249705,0.010477078,0.104245449,-0.0002733,-0.007209356,0.0006919,2.819555,0.2683515,2.578844,0.1994027,-0.09940984,-0.252839,,,,,,,
5_390_-3,-5,390,-3,2,0.009437663,0.010575425,0.104944675,-0.000203445,-0.007393798,0.000644323,2.839534,0.2733752,2.645974,0.1751233,-0.07515979,-0.2508257,,,,,,,
5_420_-3,-5,420,-3,2,0.009557052,0.01046683,0.106191683,-0.000143395,-0.007561962,0.000594072,2.874212,0.2763908,2.707291,0.1497558,-0.05444829,-0.2430749,,,,,,,
5_540_-3,-5,540,-3,3,0.020980475,0.023927292,0.235112563,-0.000629598,-0.016257989,0.001594808,2.823027,0.2666166,2.58178,0.2132824,-0.1014341,-0.261905,,,,,,,
5_585_-3,-5,585,-3,3,0.021419766,0.024166155,0.236152985,-0.000463804,-0.016641636,0.001476488,2.836389,0.2716968,2.643652,0.1883882,-0.07574366,-0.2608266,,,,,,,
5_630_-3,-5,630,-3,3,0.021675347,0.023889363,0.23874329,-0.000324877,-0.016998344,0.001354686,2.868282,0.2744776,2.701273,0.1627521,-0.05434989,-0.2534283,,,,,,,
5_360_-1,-5,360,-1,2,0.010855129,0.007650327,0.11312428,-0.000326638,-0.007878387,0.000528922,3.056508,0.3086715,2.813883,0.1419714,-0.1176267,-0.1791459,,,,,,,
5_390_-1,-5,390,-1,2,0.011361402,0.008000803,0.113606668,-0.000249419,-0.008140198,0.000483221,3.070125,0.3223817,2.907985,0.117009,-0.09064833,-0.1833842,,,,,,,
5_420_-1,-5,420,-1,2,0.011704415,0.008068859,0.115602995,-0.000189823,-0.008420649,0.000439533,3.124518,0.3314165,3.008619,0.09317241,-0.06997738,-0.1800503,,,,,,,
5_540_-1,-5,540,-1,3,0.024654937,0.017821287,0.255827158,-0.000747078,-0.017832675,0.001223294,3.069209,0.3082848,2.828279,0.155121,-0.1193882,-0.1906181,,,,,,,
5_585_-1,-5,585,-1,3,0.025842051,0.018460279,0.255929689,-0.000569907,-0.018348636,0.001125569,3.070873,0.3224139,2.910676,0.1320055,-0.09184875,-0.1938872,,,,,,,
5_630_-1,-5,630,-1,3,0.026565578,0.018650457,0.260078007,-0.000427461,-0.018952547,0.001026015,3.121016,0.3307814,3.006864,0.1091525,-0.06981224,-0.1917373,,,,,,,
5_360_0,-5,360,0,2,0.011497856,0.006091821,0.118691282,-0.000394785,-0.00834023,0.000393223,3.204811,0.3261869,2.97604,0.09536994,-0.1411334,-0.1379028,,,,,,,
5_390_0,-5,390,0,2,0.0120109,0.006264962,0.118969432,-0.000301094,-0.00861072,0.000353595,3.212767,0.3401096,3.073045,0.07241954,-0.1083429,-0.1388644,,,,,,,
5_420_0,-5,420,0,2,0.01242115,0.006330442,0.121184635,-0.000235398,-0.008923446,0.000302205,3.272886,0.3507411,3.185004,0.0458773,-0.08545458,-0.1355553,,,,,,,
5_540_0,-5,540,0,3,0.026684991,0.015457628,0.271262536,-0.000986008,-0.019058866,0.00091669,3.25242,0.3334605,3.020481,0.107762,-0.1565958,-0.1633203,,,,,,,
5_585_0,-5,585,0,3,0.027337083,0.014486479,0.268186102,-0.000683511,-0.019405936,0.000826727,3.216105,0.3404479,3.075998,0.08622244,-0.1092637,-0.1483068,,,,,,,
5_630_0,-5,630,0,3,0.028264815,0.014637863,0.272620312,-0.000529761,-0.020074231,0.000705593,3.269506,0.3510458,3.182202,0.06003959,-0.08539255,-0.1457916,,,,,,,
5_360_1,-5,360,1,2,0.012183741,0.00495912,0.12480402,-0.000470403,-0.008824384,0.000236328,3.367581,0.3463154,3.14605,0.0420836,-0.1674284,-0.110877,,,,,,,
5_390_1,-5,390,1,2,0.012497984,0.004288331,0.123378412,-0.000318978,-0.008981942,0.00020645,3.329995,0.3533667,3.202836,0.0234734,-0.1140322,-0.08916291,,,,,,,
5_420_1,-5,420,1,2,0.013041773,0.00436572,0.125806551,-0.0002522,-0.009334375,0.000153146,3.395721,0.3673982,3.328765,-0.003304151,-0.09065948,-0.0866212,,,,,,,
5_540_1,-5,540,1,3,0.027729127,0.011380525,0.281227714,-0.00106148,-0.019867679,0.000558221,3.370387,0.3466262,3.14662,0.0534719,-0.1680559,-0.1172388,,,,,,,
5_585_1,-5,585,1,3,0.028455012,0.009914643,0.27849089,-0.000725195,-0.020247894,0.000493425,3.338205,0.3540709,3.207267,0.03675365,-0.1152772,-0.09675655,,,,,,,
5_630_1,-5,630,1,3,0.029684487,0.010154148,0.283017632,-0.000564492,-0.020994967,0.000368115,3.392601,0.3681014,3.325788,0.01024582,-0.09022457,-0.09566673,,,,,,,
5_360_3,-5,360,3,2,0.012823297,0.000867144,0.130915988,-0.000495849,-0.009371259,-8.44E-05,3.529383,0.3664123,3.336815,-0.06779851,-0.1753046,-0.004881203,,,,,,,
5_390_3,-5,390,3,2,0.013422525,9.50E-05,0.13241363,-0.000354372,-0.009729666,-0.000108021,3.570549,0.3811358,3.464847,-0.08220456,-0.1251599,0.01801592,,,,,,,
5_420_3,-5,420,3,2,0.014289201,0.000106568,0.135416461,-0.000292894,-0.010169847,-0.000175792,3.651426,0.4041175,3.621553,-0.1137547,-0.1034979,0.02190345,,,,,,,
5_540_3,-5,540,3,3,0.028989601,0.002003189,0.293696407,-0.001101244,-0.021029975,-0.000176443,3.517282,0.3640289,3.327331,-0.05915904,-0.1734206,-0.008457179,,,,,,,
5_585_3,-5,585,3,3,0.030353074,0.000254412,0.299573712,-0.000800482,-0.021934089,-0.000227829,3.588305,0.3791646,3.470715,-0.07165069,-0.1259972,0.01413056,,,,,,,
5_630_3,-5,630,3,3,0.032562038,0.000530074,0.304574361,-0.000651158,-0.022865829,-0.000382817,3.648075,0.4052237,3.618071,-0.1026882,-0.1026296,0.01413213,,,,,,,
5_360_5,-5,360,5,2,0.013545557,-0.003762991,0.13741801,-0.000565228,-0.009895943,-0.000426865,3.702469,0.3884323,3.520669,-0.1865062,-0.1989454,0.1171023,,,,,,,
5_390_5,-5,390,5,2,0.014176553,-0.004426878,0.141057236,-0.0004111,-0.010428264,-0.00046456,3.801252,0.4037335,3.710661,-0.2042246,-0.1438908,0.1376369,,,,,,,
5_420_5,-5,420,5,2,0.015390099,-0.004335062,0.14519969,-0.00035044,-0.011013426,-0.000550899,3.912529,0.437315,3.91862,-0.2415648,-0.1224067,0.1373583,,,,,,,
5_540_5,-5,540,5,3,0.030744705,-0.008334978,0.309114197,-0.001246329,-0.022258691,-0.00094735,3.700304,0.3870411,3.519513,-0.1780639,-0.195536,0.1126057,,,,,,,
5_585_5,-5,585,5,3,0.032757462,-0.009042198,0.321835157,-0.001083807,-0.023674863,-0.001109313,3.85247,0.4109455,3.743496,-0.2075691,-0.1697506,0.1234538,,,,,,,
5_630_5,-5,630,5,3,0.035109239,-0.00946295,0.326628333,-0.000777836,-0.024761871,-0.001224097,3.910146,0.4386494,3.915514,-0.2308312,-0.1214302,0.1300868,,,,,,,
1_360_-7,-1,360,-7,2,0.001009444,0.012749183,0.094395891,-0.00030069,-0.006175235,0.000794654,2.561658,0.04865492,2.218496,0.2460938,-0.107794,-0.3208758,,,,,,,
1_390_-7,-1,390,-7,2,0.001165189,0.01223076,0.094209094,-0.00026302,-0.006198975,0.00071878,2.558123,0.05142158,2.229062,0.2131514,-0.09467732,-0.3032497,,,,,,,
1_420_-7,-1,420,-7,2,0.001514143,0.011772484,0.09371739,-0.000229368,-0.006156546,0.000657608,2.546912,0.05851452,2.216888,0.184861,-0.08289356,-0.286815,,,,,,,
1_540_-7,-1,540,-7,3,0.002475944,0.028927169,0.212512101,-0.000695617,-0.013899013,0.00180083,2.558203,0.04675639,2.21462,0.2547575,-0.1106095,-0.3278375,,,,,,,
1_585_-7,-1,585,-7,3,0.00295262,0.027738199,0.211562787,-0.000601103,-0.013894806,0.001629994,2.548101,0.05088476,2.215797,0.2227054,-0.09589321,-0.3105187,,,,,,,
1_630_-7,-1,630,-7,3,0.004028764,0.026663718,0.209919991,-0.000523252,-0.013749221,0.001489393,2.530364,0.06155159,2.195598,0.1947425,-0.08367968,-0.2940643,,,,,,,
1_360_-5,-1,360,-5,2,0.001427369,0.011800664,0.102256669,-0.000325202,-0.006876283,0.000772303,2.771954,0.06119918,2.466531,0.2357648,-0.1155836,-0.2943145,,,,,,,
1_390_-5,-1,390,-5,2,0.001855825,0.011606331,0.101825252,-0.00028436,-0.0069253,0.000725683,2.762327,0.07143281,2.486814,0.2123028,-0.1010842,-0.2848106,,,,,,,
1_420_-5,-1,420,-5,2,0.002302073,0.011292259,0.101901253,-0.000249223,-0.00695446,0.000674786,2.766424,0.08197714,2.500108,0.1869226,-0.08860805,-0.2718494,,,,,,,
1_540_-5,-1,540,-5,3,0.003546595,0.026953327,0.23009911,-0.000758056,-0.015471072,0.001769551,2.767766,0.06083848,2.462374,0.2475074,-0.1197309,-0.3030466,,,,,,,
1_585_-5,-1,585,-5,3,0.004662326,0.026439745,0.228712532,-0.000660592,-0.015535837,0.001657094,2.752805,0.07284821,2.475005,0.2238826,-0.10434,-0.2932985,,,,,,,
1_630_-5,-1,630,-5,3,0.005716622,0.025586436,0.228634354,-0.000570325,-0.015573135,0.001526292,2.753508,0.08401208,2.483282,0.1970324,-0.09011464,-0.2792683,,,,,,,
1_360_-3,-1,360,-3,2,0.001602171,0.010246031,0.111845045,-0.000338796,-0.007689889,0.000676665,3.027624,0.06755896,2.752306,0.1982562,-0.1195229,-0.2505092,,,,,,,
1_390_-3,-1,390,-3,2,0.00186756,0.010207536,0.111450708,-0.000255866,-0.007826956,0.0006243,3.018387,0.07345778,2.803007,0.1719295,-0.09005524,-0.2450614,,,,,,,
1_420_-3,-1,420,-3,2,0.002041812,0.010017673,0.112675261,-0.000189591,-0.007996469,0.000575503,3.052551,0.07705717,2.865067,0.1470095,-0.06652676,-0.2355,,,,,,,
1_540_-3,-1,540,-3,3,0.003624575,0.023522721,0.252619473,-0.000762872,-0.017354067,0.001567302,3.035116,0.06349849,2.757032,0.2124126,-0.1198232,-0.2602933,,,,,,,
1_585_-3,-1,585,-3,3,0.004253639,0.023395111,0.25074334,-0.000561373,-0.01760451,0.001440115,3.013748,0.06973942,2.798179,0.1857221,-0.08801062,-0.2549893,,,,,,,
1_630_-3,-1,630,-3,3,0.00468578,0.02297007,0.253315541,-0.000409336,-0.017972767,0.001322574,3.045449,0.07384616,2.85775,0.1608009,-0.0640258,-0.2461693,,,,,,,
1_360_-1,-1,360,-1,2,0.001991091,0.010214658,0.12653676,-0.000523639,-0.008848288,0.000617087,3.421184,0.07723467,3.161405,0.1730763,-0.1836971,-0.247522,,,,,,,
1_390_-1,-1,390,-1,2,0.002706445,0.009642872,0.122800234,-0.000417687,-0.008849466,0.000628526,3.32173,0.09359438,3.16372,0.1672317,-0.1457824,-0.2263002,,,,,,,
1_420_-1,-1,420,-1,2,0.003364343,0.00999372,0.123805344,-0.000366227,-0.009048928,0.000617434,3.349899,0.1093098,3.236395,0.1543141,-0.1272834,-0.2301169,,,,,,,
1_540_-1,-1,540,-1,3,0.004675853,0.02352744,0.28463828,-0.001190792,-0.019912892,0.00144707,3.416631,0.07590984,3.159229,0.1893561,-0.1862185,-0.2579458,,,,,,,
1_585_-1,-1,585,-1,3,0.006512904,0.022461994,0.276043921,-0.000951489,-0.019890144,0.001484129,3.31473,0.09516039,3.157192,0.1869005,-0.1482143,-0.2402039,,,,,,,
1_630_-1,-1,630,-1,3,0.008158859,0.023222596,0.277774774,-0.000830561,-0.020295638,0.001453128,3.336264,0.1130617,3.222657,0.1743018,-0.1289589,-0.2444129,,,,,,,
1_360_0,-1,360,0,2,0.002128652,0.007985539,0.131201145,-0.000588286,-0.0091631,0.000465409,3.544713,0.08259773,3.270707,0.1188886,-0.2056415,-0.1873538,,,,,,,
1_390_0,-1,390,0,2,0.002675902,0.007393387,0.130012825,-0.00049492,-0.009365214,0.000457047,3.513272,0.09518409,3.343716,0.1077606,-0.172183,-0.1669105,,,,,,,
1_420_0,-1,420,0,2,0.00322698,0.007552189,0.131627093,-0.000448546,-0.009648822,0.000412396,3.557219,0.1082508,3.445506,0.08334941,-0.1554509,-0.1659447,,,,,,,
1_540_0,-1,540,0,3,0.004923543,0.018750414,0.297143631,-0.001359967,-0.020757416,0.001104363,3.564551,0.08058001,3.290461,0.1356497,-0.2121082,-0.2013065,,,,,,,
1_585_0,-1,585,0,3,0.006249369,0.017261489,0.293308256,-0.001136479,-0.021126465,0.001084084,3.519079,0.09404456,3.349669,0.1253925,-0.1766089,-0.1795361,,,,,,,
1_630_0,-1,630,0,3,0.007629759,0.017692967,0.296247096,-0.001023133,-0.021716569,0.000984616,3.554556,0.1087975,3.443721,0.1022978,-0.1584993,-0.1800129,,,,,,,
1_360_1,-1,360,1,2,0.001906768,0.005781885,0.135420702,-0.000590212,-0.009542414,0.000273742,3.657763,0.07985681,3.404766,0.05516429,-0.2067287,-0.1315131,,,,,,,
1_390_1,-1,390,1,2,0.002433778,0.005151064,0.134069463,-0.00047574,-0.009772463,0.000259284,3.621784,0.09204281,3.487536,0.04247073,-0.165715,-0.1103235,,,,,,,
1_420_1,-1,420,1,2,0.003026867,0.005227664,0.135862953,-0.000423899,-0.010091785,0.000201108,3.670428,0.1067129,3.601703,0.01365093,-0.1470802,-0.1075497,,,,,,,
1_540_1,-1,540,1,3,0.00426086,0.013851043,0.306369059,-0.001354911,-0.021634029,0.000659038,3.674421,0.07543879,3.428344,0.06921108,-0.2116544,-0.14559,,,,,,,
1_585_1,-1,585,1,3,0.005609805,0.012130192,0.302811302,-0.001090754,-0.022072864,0.000625808,3.632175,0.08932315,3.498434,0.05760878,-0.1696942,-0.1215203,,,,,,,
1_630_1,-1,630,1,3,0.007059351,0.01233596,0.3061734,-0.000968606,-0.02274761,0.000492495,3.672576,0.1053411,3.60555,0.02962696,-0.1502325,-0.1197718,,,,,,,
1_360_3,-1,360,3,2,0.00204799,0.001147089,0.142878173,-0.000708078,-0.010234937,-8.71E-05,3.855713,0.08742397,3.647552,-0.06989061,-0.2478295,-0.01058912,,,,,,,
1_390_3,-1,390,3,2,0.002648796,0.001246262,0.14996663,-0.000664716,-0.01094838,-0.000125908,4.046916,0.106093,3.90193,-0.08908459,-0.2318563,-0.009356117,,,,,,,
1_420_3,-1,420,3,2,0.003323826,0.000222246,0.148743445,-0.000564588,-0.011169226,-0.00016596,4.014585,0.1212869,3.981207,-0.1104298,-0.1959267,0.02162464,,,,,,,
1_540_3,-1,540,3,3,0.004587544,0.002891569,0.321968988,-0.001579125,-0.023086017,-0.000154314,3.858963,0.0821802,3.655087,-0.05657626,-0.2464567,-0.01767959,,,,,,,
1_585_3,-1,585,3,3,0.005909481,0.002861083,0.337559442,-0.001515863,-0.024651648,-0.00025193,4.045552,0.1004055,3.902882,-0.07705017,-0.2360193,-0.01340636,,,,,,,
1_630_3,-1,630,3,3,0.00764628,0.000950287,0.335536041,-0.001278444,-0.025194397,-0.000337578,4.021851,0.1180809,3.989358,-0.0956747,-0.1982843,0.01139741,,,,,,,
1_360_5,-1,360,5,2,0.002538863,-0.003047825,0.149336578,-0.000772211,-0.01078174,-0.000430718,4.028098,0.102768,3.839213,-0.1880644,-0.2695194,0.09955564,,,,,,,
1_390_5,-1,390,5,2,0.003230279,-0.003453226,0.156557403,-0.000724794,-0.011498438,-0.000500264,4.222423,0.1235896,4.094177,-0.2189589,-0.2519784,0.1149395,,,,,,,
1_420_5,-1,420,5,2,0.003645122,-0.004264265,0.159519908,-0.000616457,-0.012052324,-0.000539382,4.302479,0.1330135,4.291956,-0.2372424,-0.2129305,0.1397166,,,,,,,
1_540_5,-1,540,5,3,0.005656349,-0.006462989,0.336483765,-0.001712913,-0.02433008,-0.000937169,4.031346,0.09680036,3.849488,-0.1767605,-0.2667549,0.09173107,,,,,,,
1_585_5,-1,585,5,3,0.007211556,-0.007583194,0.352975432,-0.001616954,-0.025934378,-0.00109583,4.228604,0.1168499,4.103155,-0.2066133,-0.2510928,0.1084536,,,,,,,
1_630_5,-1,630,5,3,0.008176495,-0.008738341,0.360260749,-0.001365122,-0.027227124,-0.001179683,4.315934,0.1270977,4.308106,-0.2235047,-0.2108538,0.12482,,,,,,,
0_240_-5,0,240,-5,3.5,-0.008053089,0.021312581,0.197930349,-0.001792988,-0.009800595,0.001051478,,,,,,,,,,,,,
0_240_-5,0,240,-5,3.25,-0.007317872,0.020520511,0.182285624,-0.001592509,-0.009278151,0.001037891,,,,,,,,,,,,,
0_240_-5,0,240,-5,3,-0.006471164,0.019457207,0.166836024,-0.001398388,-0.008796433,0.001033473,,,,,,,,,,,,,
0_240_-5,0,240,-5,2.75,-0.005254799,0.017621858,0.148875442,-0.001184303,-0.008226558,0.00101205,,,,,,,,,,,,,
0_240_-5,0,240,-5,2.5,-0.003668925,0.015116916,0.127633334,-0.000949039,-0.007407573,0.000929085,,,,,,,,,,,,,
0_240_-5,0,240,-5,2,-0.001260057,0.011742865,0.092597171,-0.00056505,-0.005796779,0.000717003,,,,,,,,,,,,,
0_300_-5,0,300,-5,3.5,-0.008692098,0.028369621,0.239511407,-0.001930369,-0.0131325,0.001606835,,,,,,,,,,,,,
0_300_-5,0,300,-5,3.25,-0.006756114,0.025308853,0.213419815,-0.001633469,-0.012182394,0.001525419,,,,,,,,,,,,,
0_300_-5,0,300,-5,3,-0.00476443,0.022550844,0.187846463,-0.001364714,-0.011124396,0.001394085,,,,,,,,,,,,,
0_300_-5,0,300,-5,2.75,-0.003135331,0.020642226,0.166131068,-0.001121872,-0.010155238,0.001265168,,,,,,,,,,,,,
0_300_-5,0,300,-5,2.5,-0.001982418,0.018504194,0.145334273,-0.000889462,-0.009110834,0.001131948,,,,,,,,,,,,,
0_300_-5,0,300,-5,2,-0.000510895,0.012663628,0.102199041,-0.000474228,-0.006649671,0.00078077,,,,,,,,,,,,,
0_330_-5,0,330,-5,3.5,-0.007491859,0.029621409,0.249521946,-0.001882281,-0.014403207,0.001811784,,,,,,,,,,,,,
0_330_-5,0,330,-5,3.25,-0.005299856,0.027079843,0.222790662,-0.001600893,-0.013297724,0.001666325,,,,,,,,,,,,,
0_330_-5,0,330,-5,3,-0.003655934,0.024798005,0.198928174,-0.001336407,-0.012198439,0.0015227,,,,,,,,,,,,,
0_330_-5,0,330,-5,2.75,-0.002395224,0.022467928,0.176130242,-0.001079251,-0.011046792,0.001375574,,,,,,,,,,,,,
0_330_-5,0,330,-5,2.5,-0.001481322,0.019395125,0.152062901,-0.000840602,-0.009707674,0.001184377,,,,,,,,,,,,,
0_330_-5,0,330,-5,2,-0.000124775,0.012646889,0.105992449,-0.000420504,-0.006945103,0.000795524,,,,,,,,,,,,,
0_360_-5,0,360,-5,3.5,-0.00585021,0.032034146,0.260751711,-0.001851405,-0.015660757,0.001963707,,,,,,,,,,,,,
0_360_-5,0,360,-5,3.25,-0.004211552,0.029344035,0.234675373,-0.00156954,-0.014428841,0.001804711,,,,,,,,,,,,,
0_360_-5,0,360,-5,3,-0.002842637,0.026822733,0.209873511,-0.001287378,-0.013168673,0.001643544,,,,,,,,,,,,,
0_360_-5,0,360,-5,2.75,-0.001839194,0.023490479,0.183584311,-0.001025406,-0.011707739,0.001435381,,,,,,,,,,,,,
0_360_-5,0,360,-5,2.5,-0.001008651,0.019844219,0.157610723,-0.000781857,-0.010212283,0.001221014,,,,,,,,,,,,,
0_360_-5,0,360,-5,2,9.92E-05,0.011701417,0.103502264,-0.000331947,-0.006935899,0.000756905,,,,,,,,,,,,,
0_390_-5,0,390,-5,3.5,-0.004801105,0.034284352,0.27336808,-0.001821027,-0.016846159,0.002111498,,,,,,,,,,,,,
0_390_-5,0,390,-5,3.25,-0.003325183,0.031569185,0.246553915,-0.001513666,-0.015475925,0.001936,,,,,,,,,,,,,
0_390_-5,0,390,-5,3,-0.00223091,0.027979098,0.218051147,-0.001228362,-0.013893498,0.001710769,,,,,,,,,,,,,
0_390_-5,0,390,-5,2.75,-0.001310775,0.024031921,0.189734142,-0.000963446,-0.012272092,0.001477459,,,,,,,,,,,,,
0_390_-5,0,390,-5,2.5,-0.000521334,0.020010406,0.162453446,-0.000711243,-0.010621771,0.001244993,,,,,,,,,,,,,
0_390_-5,0,390,-5,2,0.000492289,0.011555115,0.103372873,-0.000292602,-0.007020676,0.000713337,,,,,,,,,,,,,
0_405_-5,0,405,-5,3.5,-0.004298221,0.035567094,0.280040769,-0.001795446,-0.017445098,0.002189264,,,,,,,,,,,,,
0_405_-5,0,405,-5,3.25,-0.002973647,0.032333168,0.251347056,-0.001480588,-0.015892158,0.001978673,,,,,,,,,,,,,
0_405_-5,0,405,-5,3,-0.001944847,0.028309419,0.221468154,-0.001198096,-0.014209232,0.001734781,,,,,,,,,,,,,
0_405_-5,0,405,-5,2.75,-0.001046235,0.024175137,0.19257695,-0.000925413,-0.012518287,0.001494051,,,,,,,,,,,,,
0_405_-5,0,405,-5,2.5,-0.000262654,0.020004263,0.164807413,-0.000682485,-0.010805424,0.001253803,,,,,,,,,,,,,
0_405_-5,0,405,-5,2,0.00069865,0.011442099,0.103598948,-0.000278523,-0.007055479,0.000690525,,,,,,,,,,,,,
0_420_-5,0,420,-5,3.5,-0.003842413,0.036706084,0.286155592,-0.001757739,-0.01796731,0.002252873,,,,,,,,,,,,,
0_420_-5,0,420,-5,3.25,-0.002656026,0.032860827,0.255443644,-0.001449189,-0.0162634,0.002010761,,,,,,,,,,,,,
0_420_-5,0,420,-5,3,-0.001648535,0.028612494,0.224779872,-0.0011631,-0.014515442,0.001757984,,,,,,,,,,,,,
0_420_-5,0,420,-5,2.75,-0.000770616,0.024262176,0.195206381,-0.000885285,-0.012739749,0.001507327,,,,,,,,,,,,,
0_420_-5,0,420,-5,2.5,-2.10E-05,0.019870198,0.16695479,-0.000642794,-0.010952856,0.001260133,,,,,,,,,,,,,
0_420_-5,0,420,-5,2,0.000908704,0.011310762,0.103831638,-0.000264704,-0.007081849,0.000666542,,,,,,,,,,,,,
0_435_-5,0,435,-5,3.5,-0.003461309,0.037535025,0.291309225,-0.001721625,-0.01841458,0.002299135,,,,,,,,,,,,,
0_435_-5,0,435,-5,3.25,-0.002349846,0.033220625,0.259143652,-0.001416464,-0.016604747,0.002036864,,,,,,,,,,,,,
0_435_-5,0,435,-5,3,-0.001356486,0.028797821,0.227933137,-0.001122648,-0.014792536,0.001777636,,,,,,,,,,,,,
0_435_-5,0,435,-5,2.75,-0.000485811,0.024309493,0.197677512,-0.000849667,-0.012945104,0.001517283,,,,,,,,,,,,,
0_435_-5,0,435,-5,2.5,4.70E-05,0.018553535,0.163945162,-0.000575895,-0.010840456,0.001237168,,,,,,,,,,,,,
0_435_-5,0,435,-5,2,0.001106549,0.011150427,0.10406089,-0.000250653,-0.007104128,0.000640276,,,,,,,,,,,,,
0_450_-5,0,450,-5,3.5,-0.00311486,0.038130473,0.295751835,-0.001687648,-0.018816725,0.00233503,,,,,,,,,,,,,
0_450_-5,0,450,-5,3.25,-0.00202143,0.033578516,0.262743851,-0.001380386,-0.016941062,0.002062655,,,,,,,,,,,,,
0_450_-5,0,450,-5,3,-0.001054285,0.028912429,0.230903042,-0.001078658,-0.01504317,0.001794115,,,,,,,,,,,,,
0_450_-5,0,450,-5,2.75,-0.000195659,0.024236212,0.20026754,-0.000817723,-0.013136995,0.001525726,,,,,,,,,,,,,
0_450_-5,0,450,-5,2.5,0.000275256,0.018457566,0.162001954,-0.00052984,-0.010854962,0.001196852,,,,,,,,,,,,,
0_450_-5,0,450,-5,2,0.001299814,0.010976136,0.104297374,-0.000237327,-0.007121735,0.000612991,,,,,,,,,,,,,
0_465_-5,0,465,-5,3.5,-0.00278756,0.038528011,0.299739516,-0.001652365,-0.019184518,0.002363523,,,,,,,,,,,,,
0_465_-5,0,465,-5,3.25,-0.001700184,0.033821291,0.266199742,-0.001337796,-0.017250607,0.002085424,,,,,,,,,,,,,
0_465_-5,0,465,-5,3,-0.000742266,0.028986234,0.233626008,-0.001036669,-0.015272988,0.001806506,,,,,,,,,,,,,
0_465_-5,0,465,-5,2.75,6.23E-05,0.024050822,0.20240943,-0.000769629,-0.013283276,0.001531951,,,,,,,,,,,,,
0_465_-5,0,465,-5,2.5,0.000537942,0.018383796,0.161435762,-0.000497828,-0.010898434,0.001166863,,,,,,,,,,,,,
0_465_-5,0,465,-5,2,0.001487692,0.010818423,0.10455354,-0.000223372,-0.007138245,0.000584902,,,,,,,,,,,,,
0_480_-5,0,480,-5,3.5,-0.002429742,0.038930379,0.30362377,-0.001615024,-0.019548818,0.00239163,,,,,,,,,,,,,
0_480_-5,0,480,-5,3.25,-0.001371829,0.03396583,0.269499365,-0.001290867,-0.017530992,0.002104989,,,,,,,,,,,,,
0_480_-5,0,480,-5,3,-0.000424222,0.02901246,0.236318084,-0.001000944,-0.0154929,0.001815944,,,,,,,,,,,,,
0_480_-5,0,480,-5,2.75,0.000132435,0.022491307,0.198094826,-0.000695482,-0.013117549,0.001498489,,,,,,,,,,,,,
0_480_-5,0,480,-5,2.5,0.000814511,0.018271107,0.161372081,-0.000476248,-0.010939727,0.001139398,,,,,,,,,,,,,
0_480_-5,0,480,-5,2,0.001652072,0.010642195,0.10485819,-0.000208705,-0.007155007,0.000555795,,,,,,,,,,,,,
0_495_-5,0,495,-5,3.5,-0.002075942,0.039239514,0.307376362,-0.001570965,-0.019891418,0.002417496,,,,,,,,,,,,,
0_495_-5,0,495,-5,3.25,-0.001031767,0.034064113,0.272549595,-0.001243423,-0.017787868,0.002120629,,,,,,,,,,,,,
0_495_-5,0,495,-5,3,-0.000107219,0.028900699,0.239112349,-0.000961502,-0.01569054,0.001824715,,,,,,,,,,,,,
0_495_-5,0,495,-5,2.75,0.000399766,0.022414357,0.196063686,-0.000644727,-0.013135953,0.00145475,,,,,,,,,,,,,
0_495_-5,0,495,-5,2.5,0.001090231,0.018132336,0.161565881,-0.000457382,-0.010981903,0.001110197,,,,,,,,,,,,,
0_495_-5,0,495,-5,2,0.001794355,0.010440937,0.105152225,-0.000193443,-0.007170242,0.000524154,,,,,,,,,,,,,
0_510_-5,0,510,-5,3.5,-0.001721818,0.03942049,0.310983517,-0.001521449,-0.020202084,0.002440058,,,,,,,,,,,,,
0_510_-5,0,510,-5,3.25,-0.000685165,0.034121293,0.275401964,-0.001200379,-0.01802834,0.002131788,,,,,,,,,,,,,
0_510_-5,0,510,-5,3,0.000170903,0.028565475,0.241026128,-0.000905586,-0.015821769,0.001830058,,,,,,,,,,,,,
0_510_-5,0,510,-5,2.75,0.000700149,0.022332035,0.195335963,-0.000608373,-0.013179016,0.001420784,,,,,,,,,,,,,
0_510_-5,0,510,-5,2.5,0.001372023,0.017972755,0.161775426,-0.000438944,-0.011014737,0.001080004,,,,,,,,,,,,,
0_510_-5,0,510,-5,2,0.001921099,0.010201853,0.105466054,-0.000178299,-0.007185731,0.000489067,,,,,,,,,,,,,
0_540_-5,0,540,-5,3.5,-0.000977912,0.0396238,0.317523678,-0.00142011,-0.020752424,0.002473297,,,,,,,,,,,,,
0_540_-5,0,540,-5,3.25,6.98E-06,0.033987819,0.281315022,-0.001115545,-0.018464935,0.002150848,,,,,,,,,,,,,
0_540_-5,0,540,-5,3,0.000552281,0.026755184,0.233321191,-0.000770182,-0.015630586,0.00173781,,,,,,,,,,,,,
0_540_-5,0,540,-5,2.75,0.001328397,0.022050772,0.195319072,-0.000562485,-0.013264916,0.001357271,,,,,,,,,,,,,
0_540_-5,0,540,-5,2.5,0.001905786,0.017574709,0.162272271,-0.000401309,-0.011068987,0.001012819,,,,,,,,,,,,,
0_540_-5,0,540,-5,2,0.002143345,0.009734784,0.106349427,-0.000149209,-0.007232872,0.000417124,,,,,,,,,,,,,
0_570_-5,0,570,-5,3.5,-0.000215951,0.039577158,0.323825609,-0.001337831,-0.021251061,0.00249321,,,,,,,,,,,,,
0_570_-5,0,570,-5,3.25,0.000380999,0.031535174,0.276064214,-0.000965558,-0.018316847,0.002096632,,,,,,,,,,,,,
0_570_-5,0,570,-5,3,0.001247254,0.026521168,0.23214475,-0.000701719,-0.015714242,0.001665214,,,,,,,,,,,,,
0_570_-5,0,570,-5,2.75,0.001954002,0.021680779,0.195760013,-0.000520257,-0.013333412,0.001288528,,,,,,,,,,,,,
0_570_-5,0,570,-5,2.5,0.002418906,0.017126124,0.162783837,-0.000364482,-0.011103404,0.000941455,,,,,,,,,,,,,
0_570_-5,0,570,-5,2,0.002321806,0.0092788,0.107339199,-0.000121205,-0.007287216,0.00034357,,,,,,,,,,,,,
0_600_-5,0,600,-5,3.5,0.000441275,0.038359204,0.326967603,-0.001199239,-0.021481854,0.00250108,,,,,,,,,,,,,
0_600_-5,0,600,-5,3.25,0.001110881,0.031381056,0.272707584,-0.000861007,-0.018379612,0.002004222,,,,,,,,,,,,,
0_600_-5,0,600,-5,3,0.001948645,0.02616829,0.232449375,-0.0006546,-0.015801948,0.001592545,,,,,,,,,,,,,
0_600_-5,0,600,-5,2.75,0.00255149,0.021210458,0.196276215,-0.000478226,-0.013384115,0.001211406,,,,,,,,,,,,,
0_600_-5,0,600,-5,2.5,0.002842153,0.016631499,0.163426089,-0.000324675,-0.011137099,0.000864361,,,,,,,,,,,,,
0_600_-5,0,600,-5,2,0.002380907,0.008818874,0.108556601,-9.78E-05,-0.007364617,0.000265084,,,,,,,,,,,,,
0_240_-4,0,240,-4,3.5,-0.008191998,0.018279457,0.200526887,-0.001876107,-0.009938041,0.000906516,,,,,,,,,,,,,
0_240_-4,0,240,-4,3.25,-0.007522756,0.017836685,0.185108689,-0.001670959,-0.009413695,0.000902921,,,,,,,,,,,,,
0_240_-4,0,240,-4,3,-0.00677854,0.017289905,0.170450769,-0.001475582,-0.008977347,0.000913722,,,,,,,,,,,,,
0_240_-4,0,240,-4,2.75,-0.005576769,0.015992172,0.153068962,-0.001259678,-0.008464854,0.000913406,,,,,,,,,,,,,
0_240_-4,0,240,-4,2.5,-0.003814715,0.013793262,0.131478303,-0.001020154,-0.007665836,0.000853779,,,,,,,,,,,,,
0_240_-4,0,240,-4,2,-0.001319024,0.010905795,0.095659934,-0.000613206,-0.006039587,0.000670932,,,,,,,,,,,,,
0_300_-4,0,300,-4,3.5,-0.009201025,0.025655949,0.245970915,-0.002047071,-0.01348889,0.001444626,,,,,,,,,,,,,
0_300_-4,0,300,-4,3.25,-0.007069811,0.023058292,0.219703521,-0.00174681,-0.012588514,0.001395544,,,,,,,,,,,,,
0_300_-4,0,300,-4,3,-0.004660074,0.020924769,0.193800755,-0.001461389,-0.011583445,0.001289087,,,,,,,,,,,,,
0_300_-4,0,300,-4,2.75,-0.003208284,0.018982113,0.171224338,-0.00120617,-0.010541595,0.001173269,,,,,,,,,,,,,
0_300_-4,0,300,-4,2.5,-0.002080533,0.017187718,0.150100257,-0.000962495,-0.009490272,0.001058877,,,,,,,,,,,,,
0_300_-4,0,300,-4,2,-0.000550479,0.011911807,0.106570125,-0.00053061,-0.006996047,0.0007342,,,,,,,,,,,,,
0_330_-4,0,330,-4,3.5,-0.007771129,0.026969341,0.25680499,-0.002016509,-0.01488568,0.001660251,,,,,,,,,,,,,
0_330_-4,0,330,-4,3.25,-0.005138083,0.025101129,0.229859177,-0.001709686,-0.013841322,0.001539844,,,,,,,,,,,,,
0_330_-4,0,330,-4,3,-0.003751722,0.022816172,0.205037574,-0.001436348,-0.012664415,0.001412726,,,,,,,,,,,,,
0_330_-4,0,330,-4,2.75,-0.002518611,0.020873531,0.181881709,-0.001166894,-0.011505966,0.001286655,,,,,,,,,,,,,
0_330_-4,0,330,-4,2.5,-0.001568236,0.018275081,0.157894894,-0.000920898,-0.01017105,0.001116885,,,,,,,,,,,,,
0_330_-4,0,330,-4,2,-0.000148531,0.012076321,0.110691651,-0.000492531,-0.007367225,0.000745144,,,,,,,,,,,,,
0_360_-4,0,360,-4,3.5,-0.005742607,0.029567841,0.268919986,-0.001977852,-0.016273515,0.001813342,,,,,,,,,,,,,
0_360_-4,0,360,-4,3.25,-0.004332489,0.027015144,0.241895688,-0.001686885,-0.014982656,0.001675276,,,,,,,,,,,,,
0_360_-4,0,360,-4,3,-0.002994628,0.024925586,0.216710453,-0.001391135,-0.013715831,0.001537359,,,,,,,,,,,,,
0_360_-4,0,360,-4,2.75,-0.001949899,0.022115516,0.190532082,-0.001120686,-0.012260179,0.001352705,,,,,,,,,,,,,
0_360_-4,0,360,-4,2.5,-0.001105541,0.018638088,0.16427324,-0.000866125,-0.010728467,0.00115004,,,,,,,,,,,,,
0_360_-4,0,360,-4,2,9.93E-05,0.011034474,0.109550538,-0.000415519,-0.007433127,0.000725282,,,,,,,,,,,,,
0_390_-4,0,390,-4,3.5,-0.004950125,0.031582511,0.281794838,-0.001957751,-0.01749596,0.001960995,,,,,,,,,,,,,
0_390_-4,0,390,-4,3.25,-0.003509733,0.029345524,0.254583303,-0.001635316,-0.016120097,0.001811112,,,,,,,,,,,,,
0_390_-4,0,390,-4,3,-0.002371889,0.026326119,0.226218964,-0.001340232,-0.014543891,0.001611618,,,,,,,,,,,,,
0_390_-4,0,390,-4,2.75,-0.001435714,0.022581477,0.197712723,-0.001063817,-0.012887437,0.001392541,,,,,,,,,,,,,
0_390_-4,0,390,-4,2.5,-0.000608761,0.01884271,0.169438746,-0.000803275,-0.011189341,0.001165435,,,,,,,,,,,,,
0_390_-4,0,390,-4,2,0.00042725,0.011037964,0.109309176,-0.000367783,-0.007562511,0.000692325,,,,,,,,,,,,,
0_405_-4,0,405,-4,3.5,-0.004504892,0.032850566,0.288749495,-0.001937756,-0.018134819,0.002038696,,,,,,,,,,,,,
0_405_-4,0,405,-4,3.25,-0.003156091,0.030250344,0.260045408,-0.001603766,-0.016589738,0.001858374,,,,,,,,,,,,,
0_405_-4,0,405,-4,3,-0.002081995,0.026749137,0.230394878,-0.001317127,-0.014914632,0.001637938,,,,,,,,,,,,,
0_405_-4,0,405,-4,2.75,-0.00117142,0.022692191,0.200740808,-0.001029673,-0.013157816,0.001403784,,,,,,,,,,,,,
0_405_-4,0,405,-4,2.5,-0.000332402,0.019008658,0.171997779,-0.000778194,-0.011421273,0.001173807,,,,,,,,,,,,,
0_405_-4,0,405,-4,2,0.000599234,0.011041371,0.109771276,-0.000351186,-0.007632405,0.000679499,,,,,,,,,,,,,
0_420_-4,0,420,-4,3.5,-0.004063711,0.034135563,0.295492698,-0.00189929,-0.018718302,0.002108122,,,,,,,,,,,,,
0_420_-4,0,420,-4,3.25,-0.002833257,0.030907953,0.264944856,-0.001579459,-0.017021453,0.001893808,,,,,,,,,,,,,
0_420_-4,0,420,-4,3,-0.001801838,0.026921669,0.234216522,-0.001281843,-0.015244104,0.001658852,,,,,,,,,,,,,
0_420_-4,0,420,-4,2.75,-0.000892313,0.022805109,0.203541888,-0.000994932,-0.013408152,0.001411987,,,,,,,,,,,,,
0_420_-4,0,420,-4,2.5,-7.61E-05,0.019011799,0.174346826,-0.000755617,-0.01162726,0.001177196,,,,,,,,,,,,,
0_420_-4,0,420,-4,2,0.000813246,0.01107871,0.110153528,-0.000338015,-0.007684151,0.000672754,,,,,,,,,,,,,
0_435_-4,0,435,-4,3.5,-0.003683461,0.035123182,0.301385296,-0.001864906,-0.019224548,0.002159808,,,,,,,,,,,,,
0_435_-4,0,435,-4,3.25,-0.002517249,0.031394409,0.269487767,-0.001555713,-0.017425761,0.001923224,,,,,,,,,,,,,
0_435_-4,0,435,-4,3,-0.001516844,0.027023176,0.237565249,-0.001245258,-0.015541106,0.001672041,,,,,,,,,,,,,
0_435_-4,0,435,-4,2.75,-0.000604294,0.022937791,0.206276362,-0.000962648,-0.013651186,0.001420009,,,,,,,,,,,,,
0_435_-4,0,435,-4,2.5,0.000155356,0.018637199,0.175942551,-0.000730439,-0.011769914,0.001175152,,,,,,,,,,,,,
0_435_-4,0,435,-4,2,0.001077814,0.011065367,0.110520768,-0.000329134,-0.007726096,0.000660583,,,,,,,,,,,,,
0_450_-4,0,450,-4,3.5,-0.003333823,0.035859374,0.306698412,-0.001838142,-0.019692193,0.002199193,,,,,,,,,,,,,
0_450_-4,0,450,-4,3.25,-0.002204412,0.031656773,0.273759342,-0.001519759,-0.017796224,0.001948834,,,,,,,,,,,,,
0_450_-4,0,450,-4,3,-0.001212454,0.027153789,0.240700269,-0.001206803,-0.015822271,0.00168224,,,,,,,,,,,,,
0_450_-4,0,450,-4,2.75,-0.000287283,0.023147381,0.209069313,-0.000942149,-0.013917475,0.00142915,,,,,,,,,,,,,
0_450_-4,0,450,-4,2.5,0.000217957,0.017390833,0.171557737,-0.000659907,-0.011642472,0.001147084,,,,,,,,,,,,,
0_450_-4,0,450,-4,2,0.001344171,0.011037458,0.110817764,-0.000319934,-0.007757955,0.000647044,,,,,,,,,,,,,
0_465_-4,0,465,-4,3.5,-0.00299117,0.036407024,0.311614483,-0.001813247,-0.020129475,0.002231965,,,,,,,,,,,,,
0_465_-4,0,465,-4,3.25,-0.001894516,0.031746566,0.277446114,-0.001479796,-0.01811886,0.001964092,,,,,,,,,,,,,
0_465_-4,0,465,-4,3,-0.000900794,0.027285183,0.243729648,-0.001170779,-0.0160904,0.001691584,,,,,,,,,,,,,
0_465_-4,0,465,-4,2.75,-2.54E-05,0.023079136,0.211332393,-0.000909593,-0.014109897,0.001428433,,,,,,,,,,,,,
0_465_-4,0,465,-4,2.5,0.000433233,0.017395219,0.170679746,-0.000621887,-0.011709301,0.001120318,,,,,,,,,,,,,
0_465_-4,0,465,-4,2,0.001581374,0.010955688,0.111265358,-0.000311133,-0.007796841,0.000627466,,,,,,,,,,,,,
0_480_-4,0,480,-4,3.5,-0.002643597,0.036786316,0.31632882,-0.001777834,-0.020541986,0.002262201,,,,,,,,,,,,,
0_480_-4,0,480,-4,3.25,-0.001568896,0.031883075,0.280930548,-0.001439121,-0.018431253,0.001976361,,,,,,,,,,,,,
0_480_-4,0,480,-4,3,-0.000573811,0.027456713,0.246669463,-0.001136648,-0.016354494,0.001700606,,,,,,,,,,,,,
0_480_-4,0,480,-4,2.75,0.000236177,0.022461787,0.212837585,-0.000880304,-0.014244873,0.001427191,,,,,,,,,,,,,
0_480_-4,0,480,-4,2.5,0.000668334,0.017429564,0.17071278,-0.000595607,-0.011788363,0.001103567,,,,,,,,,,,,,
0_480_-4,0,480,-4,2,0.001786615,0.010820198,0.111796852,-0.000302162,-0.007840552,0.000602368,,,,,,,,,,,,,
0_495_-4,0,495,-4,3.5,-0.00230806,0.036871721,0.320390861,-0.001734094,-0.020893041,0.002280157,,,,,,,,,,,,,
0_495_-4,0,495,-4,3.25,-0.001230612,0.032028729,0.28422047,-0.001398775,-0.018724997,0.00198695,,,,,,,,,,,,,
0_495_-4,0,495,-4,3,-0.000229534,0.027635858,0.249697559,-0.001117098,-0.016641456,0.001709028,,,,,,,,,,,,,
0_495_-4,0,495,-4,2.75,0.000302688,0.021119469,0.20766439,-0.000802513,-0.014095057,0.001394586,,,,,,,,,,,,,
0_495_-4,0,495,-4,2.5,0.00089898,0.017425989,0.171211993,-0.00057377,-0.011876032,0.001085882,,,,,,,,,,,,,
0_495_-4,0,495,-4,2,0.001981429,0.010639883,0.112357849,-0.000293123,-0.007883269,0.000573532,,,,,,,,,,,,,
0_510_-4,0,510,-4,3.5,-0.001962202,0.036996081,0.324189432,-0.001691301,-0.021232385,0.00229419,,,,,,,,,,,,,
0_510_-4,0,510,-4,3.25,-0.000885689,0.032181969,0.287480741,-0.001360607,-0.019012443,0.001997293,,,,,,,,,,,,,
0_510_-4,0,510,-4,3,3.14E-05,0.027533144,0.251913794,-0.001082064,-0.01683415,0.001704953,,,,,,,,,,,,,
0_510_-4,0,510,-4,2.75,0.000550159,0.021140465,0.20661773,-0.000760143,-0.014165814,0.001365437,,,,,,,,,,,,,
0_510_-4,0,510,-4,2.5,0.001186482,0.017494701,0.17161022,-0.000555993,-0.011942302,0.001078141,,,,,,,,,,,,,
0_510_-4,0,510,-4,2,0.002169966,0.010425274,0.112906449,-0.000283965,-0.007923601,0.00054228,,,,,,,,,,,,,
0_540_-4,0,540,-4,3.5,-0.00122792,0.037310156,0.331276234,-0.001604433,-0.021864745,0.002317477,,,,,,,,,,,,,
0_540_-4,0,540,-4,3.25,-0.000160133,0.032489335,0.293650096,-0.001297756,-0.01957879,0.002011756,,,,,,,,,,,,,
0_540_-4,0,540,-4,3,0.000404952,0.025219449,0.247190757,-0.000958371,-0.016778964,0.001667122,,,,,,,,,,,,,
0_540_-4,0,540,-4,2.75,0.001075519,0.021169614,0.207014286,-0.000704521,-0.014344739,0.0013257,,,,,,,,,,,,,
0_540_-4,0,540,-4,2.5,0.001886846,0.017478557,0.172338054,-0.000530176,-0.012039422,0.001049172,,,,,,,,,,,,,
0_540_-4,0,540,-4,2,0.002497029,0.009996882,0.114298166,-0.000264122,-0.008023021,0.000478176,,,,,,,,,,,,,
0_570_-4,0,570,-4,3.5,-0.000447335,0.037729858,0.337901355,-0.001529511,-0.022477196,0.002335166,,,,,,,,,,,,,
0_570_-4,0,570,-4,3.25,0.000433123,0.030926495,0.296163066,-0.001205185,-0.019841074,0.002006254,,,,,,,,,,,,,
0_570_-4,0,570,-4,3,0.000981318,0.025288603,0.245768491,-0.000876094,-0.016942025,0.001613231,,,,,,,,,,,,,
0_570_-4,0,570,-4,2.75,0.001780851,0.021283018,0.207777478,-0.000667871,-0.014477068,0.001304628,,,,,,,,,,,,,
0_570_-4,0,570,-4,2.5,0.002566554,0.017304703,0.173128923,-0.000504106,-0.012115947,0.001006025,,,,,,,,,,,,,
0_570_-4,0,570,-4,2,0.00276857,0.009540552,0.115864461,-0.000244825,-0.008135095,0.000410288,,,,,,,,,,,,,
0_600_-4,0,600,-4,3.5,0.000213561,0.037571823,0.343842393,-0.00147273,-0.02299627,0.002335712,,,,,,,,,,,,,
0_600_-4,0,600,-4,3.25,0.000844137,0.029729117,0.288715194,-0.001075567,-0.019770134,0.001930192,,,,,,,,,,,,,
0_600_-4,0,600,-4,3,0.001613807,0.02534989,0.246625199,-0.000823564,-0.017127183,0.001577098,,,,,,,,,,,,,
0_600_-4,0,600,-4,2.75,0.002584432,0.021203536,0.208491074,-0.000638723,-0.014567485,0.001267375,,,,,,,,,,,,,
0_600_-4,0,600,-4,2.5,0.003112785,0.016916604,0.174320299,-0.000478625,-0.012212313,0.000940832,,,,,,,,,,,,,
0_600_-4,0,600,-4,2,0.002964447,0.009015172,0.117691916,-0.000228513,-0.008269917,0.000336149,,,,,,,,,,,,,
0_240_-3,0,240,-3,3.5,-0.008227894,0.014895844,0.201799866,-0.001894003,-0.009999528,0.000745,,,,,,,,,,,,,
0_240_-3,0,240,-3,3.25,-0.007635737,0.014749697,0.186351654,-0.00168883,-0.009450996,0.000748738,,,,,,,,,,,,,
0_240_-3,0,240,-3,3,-0.007034148,0.014635963,0.172133421,-0.001495219,-0.009014652,0.000766706,,,,,,,,,,,,,
0_240_-3,0,240,-3,2.75,-0.005910606,0.013875338,0.155706858,-0.00128368,-0.008565072,0.000786969,,,,,,,,,,,,,
0_240_-3,0,240,-3,2.5,-0.004229193,0.012029688,0.134133822,-0.001041913,-0.007804039,0.000748633,,,,,,,,,,,,,
0_240_-3,0,240,-3,2,-0.001338954,0.009795699,0.098024424,-0.000618629,-0.006204153,0.000604116,,,,,,,,,,,,,
0_300_-3,0,300,-3,3.5,-0.009705252,0.022170647,0.250085773,-0.002084216,-0.013642908,0.00124602,,,,,,,,,,,,,
0_300_-3,0,300,-3,3.25,-0.007807724,0.020291772,0.224532336,-0.001785844,-0.012825212,0.001220574,,,,,,,,,,,,,
0_300_-3,0,300,-3,3,-0.004940875,0.018176757,0.197281654,-0.001486658,-0.011793393,0.001140798,,,,,,,,,,,,,
0_300_-3,0,300,-3,2.75,-0.003275995,0.016796837,0.175281263,-0.001229992,-0.010797561,0.001046198,,,,,,,,,,,,,
0_300_-3,0,300,-3,2.5,-0.002122273,0.015455221,0.153884131,-0.00097152,-0.009754325,0.000954345,,,,,,,,,,,,,
0_300_-3,0,300,-3,2,-0.000489449,0.010903419,0.109979848,-0.00053701,-0.007254292,0.000663149,,,,,,,,,,,,,
0_330_-3,0,330,-3,3.5,-0.008673638,0.023701292,0.262459872,-0.002060046,-0.015180052,0.001459969,,,,,,,,,,,,,
0_330_-3,0,330,-3,3.25,-0.005303196,0.021950456,0.23437127,-0.001740405,-0.014133354,0.001367451,,,,,,,,,,,,,
0_330_-3,0,330,-3,3,-0.003843922,0.020224809,0.209917755,-0.001462795,-0.012972451,0.001260986,,,,,,,,,,,,,
0_330_-3,0,330,-3,2.75,-0.002576555,0.01877498,0.186480524,-0.001177217,-0.011826451,0.001159784,,,,,,,,,,,,,
0_330_-3,0,330,-3,2.5,-0.001541398,0.016704188,0.162396832,-0.000922774,-0.010501489,0.001011998,,,,,,,,,,,,,
0_330_-3,0,330,-3,2,-8.03E-05,0.011078931,0.114404165,-0.000487736,-0.007655397,0.000668147,,,,,,,,,,,,,
0_360_-3,0,360,-3,3.5,-0.005893288,0.025937235,0.274576042,-0.002017067,-0.016634065,0.001612178,,,,,,,,,,,,,
0_360_-3,0,360,-3,3.25,-0.004453084,0.023982683,0.247647948,-0.001715095,-0.015345556,0.00149664,,,,,,,,,,,,,
0_360_-3,0,360,-3,3,-0.00307344,0.022424564,0.222179095,-0.001402336,-0.014096319,0.001385843,,,,,,,,,,,,,
0_360_-3,0,360,-3,2.75,-0.001930928,0.02019919,0.195876635,-0.001122268,-0.012650642,0.001225415,,,,,,,,,,,,,
0_360_-3,0,360,-3,2.5,-0.001006405,0.017157631,0.169432535,-0.000873331,-0.011118798,0.001042486,,,,,,,,,,,,,
0_360_-3,0,360,-3,2,0.000125974,0.009933867,0.114861367,-0.000412844,-0.007816598,0.000655547,,,,,,,,,,,,,
0_390_-3,0,390,-3,3.5,-0.005104033,0.028073637,0.28848111,-0.001986737,-0.017917604,0.001753463,,,,,,,,,,,,,
0_390_-3,0,390,-3,3.25,-0.003612883,0.026406447,0.26097767,-0.001646749,-0.016563974,0.001632776,,,,,,,,,,,,,
0_390_-3,0,390,-3,3,-0.002363824,0.024027559,0.232452584,-0.001340796,-0.014997237,0.001459603,,,,,,,,,,,,,
0_390_-3,0,390,-3,2.75,-0.001322537,0.020835216,0.203766701,-0.0010693,-0.013349242,0.001263202,,,,,,,,,,,,,
0_390_-3,0,390,-3,2.5,-0.000516826,0.017229847,0.174906257,-0.00081,-0.011607191,0.001049387,,,,,,,,,,,,,
0_390_-3,0,390,-3,2,0.000520471,0.009785847,0.113750169,-0.00034636,-0.007936989,0.000592382,,,,,,,,,,,,,
0_405_-3,0,405,-3,3.5,-0.004652308,0.029380766,0.295742643,-0.001956333,-0.018598457,0.001831554,,,,,,,,,,,,,
0_405_-3,0,405,-3,3.25,-0.003222968,0.027414202,0.266799548,-0.001607411,-0.017070835,0.001679264,,,,,,,,,,,,,
0_405_-3,0,405,-3,3,-0.002024003,0.024504992,0.236943571,-0.00131513,-0.01539886,0.001483753,,,,,,,,,,,,,
0_405_-3,0,405,-3,2.75,-0.001049827,0.020829992,0.20706828,-0.001038142,-0.013632708,0.001270124,,,,,,,,,,,,,
0_405_-3,0,405,-3,2.5,-0.000258284,0.017334379,0.177433994,-0.000778245,-0.011843306,0.001050183,,,,,,,,,,,,,
0_405_-3,0,405,-3,2,0.000670048,0.009698376,0.114359916,-0.000321834,-0.008026006,0.000566424,,,,,,,,,,,,,
0_420_-3,0,420,-3,3.5,-0.00419429,0.030722632,0.302871204,-0.001910289,-0.019229189,0.001900753,,,,,,,,,,,,,
0_420_-3,0,420,-3,3.25,-0.002840122,0.028190499,0.272120198,-0.001578335,-0.017541334,0.001714721,,,,,,,,,,,,,
0_420_-3,0,420,-3,3,-0.001684971,0.024835718,0.241123952,-0.001284665,-0.015771682,0.001503575,,,,,,,,,,,,,
0_420_-3,0,420,-3,2.75,-0.000773406,0.020891567,0.210095196,-0.001002304,-0.013902836,0.001274768,,,,,,,,,,,,,
0_420_-3,0,420,-3,2.5,3.44E-05,0.017504466,0.180276837,-0.000748281,-0.012101374,0.001053301,,,,,,,,,,,,,
0_420_-3,0,420,-3,2,0.000805422,0.0096012,0.11510504,-0.000298793,-0.008113256,0.000541591,,,,,,,,,,,,,
0_435_-3,0,435,-3,3.5,-0.003774901,0.031825826,0.309143081,-0.001867088,-0.019775357,0.001951712,,,,,,,,,,,,,
0_435_-3,0,435,-3,3.25,-0.002464716,0.028753356,0.277067154,-0.001551183,-0.017982431,0.001742635,,,,,,,,,,,,,
0_435_-3,0,435,-3,3,-0.00137354,0.024864976,0.244987194,-0.001252133,-0.016097888,0.001515134,,,,,,,,,,,,,
0_435_-3,0,435,-3,2.75,-0.000499982,0.020945865,0.212849724,-0.000966221,-0.014154832,0.001275747,,,,,,,,,,,,,
0_435_-3,0,435,-3,2.5,0.000225164,0.017412415,0.182531822,-0.000725164,-0.012308902,0.001045356,,,,,,,,,,,,,
0_435_-3,0,435,-3,2,0.000932227,0.009518133,0.11585228,-0.000275998,-0.008192838,0.000518958,,,,,,,,,,,,,
0_450_-3,0,450,-3,3.5,-0.003359514,0.032691355,0.314881223,-0.001834884,-0.020283118,0.001991039,,,,,,,,,,,,,
0_450_-3,0,450,-3,3.25,-0.002092955,0.029149805,0.281584597,-0.001519364,-0.018389471,0.001764816,,,,,,,,,,,,,
0_450_-3,0,450,-3,3,-0.001070639,0.024907135,0.248370297,-0.001214463,-0.016397034,0.001521117,,,,,,,,,,,,,
0_450_-3,0,450,-3,2.75,-0.000205553,0.021109778,0.215613215,-0.000931609,-0.014418166,0.001276296,,,,,,,,,,,,,
0_450_-3,0,450,-3,2.5,0.000257586,0.015747589,0.180229991,-0.000648329,-0.012252124,0.001036758,,,,,,,,,,,,,
0_450_-3,0,450,-3,2,0.001047404,0.009447339,0.116563678,-0.000253933,-0.008265062,0.000498302,,,,,,,,,,,,,
0_465_-3,0,465,-3,3.5,-0.002948065,0.03333969,0.32026925,-0.001806017,-0.020762978,0.002022675,,,,,,,,,,,,,
0_465_-3,0,465,-3,3.25,-0.001735055,0.029295367,0.28600101,-0.001484326,-0.018765584,0.001782036,,,,,,,,,,,,,
0_465_-3,0,465,-3,3,-0.000764964,0.02497216,0.251510717,-0.00117458,-0.016679882,0.001524519,,,,,,,,,,,,,
0_465_-3,0,465,-3,2.75,9.54E-05,0.021220802,0.218540488,-0.000898256,-0.014685088,0.001276474,,,,,,,,,,,,,
0_465_-3,0,465,-3,2.5,0.000525048,0.015525316,0.178026311,-0.000601892,-0.012270045,0.000990768,,,,,,,,,,,,,
0_465_-3,0,465,-3,2,0.001148665,0.009346613,0.117361165,-0.000231816,-0.008339601,0.000474543,,,,,,,,,,,,,
0_480_-3,0,480,-3,3.5,-0.002542228,0.033798028,0.325186609,-0.001773177,-0.02120637,0.002047847,,,,,,,,,,,,,
0_480_-3,0,480,-3,3.25,-0.001405712,0.029286491,0.289745014,-0.001445864,-0.019090285,0.001788974,,,,,,,,,,,,,
0_480_-3,0,480,-3,3,-0.000458054,0.025066126,0.254434733,-0.001134868,-0.016952609,0.001524774,,,,,,,,,,,,,
0_480_-3,0,480,-3,2.75,0.000290026,0.021045564,0.220936161,-0.000875177,-0.014905565,0.001266792,,,,,,,,,,,,,
0_480_-3,0,480,-3,2.5,0.000796242,0.015484279,0.177555981,-0.00055663,-0.012348621,0.000951383,,,,,,,,,,,,,
0_480_-3,0,480,-3,2,0.00125602,0.009261982,0.11814615,-0.000210819,-0.008410973,0.000452301,,,,,,,,,,,,,
0_495_-3,0,495,-3,3.5,-0.002140605,0.034072953,0.330027474,-0.001735599,-0.021626863,0.002069294,,,,,,,,,,,,,
0_495_-3,0,495,-3,3.25,-0.001068022,0.029362069,0.29330491,-0.00140324,-0.019406899,0.001795074,,,,,,,,,,,,,
0_495_-3,0,495,-3,3,-0.000139193,0.025226192,0.257463425,-0.001097929,-0.017239501,0.001524746,,,,,,,,,,,,,
0_495_-3,0,495,-3,2.75,0.000353188,0.019179006,0.218392873,-0.000785932,-0.01484087,0.0012605,,,,,,,,,,,,,
0_495_-3,0,495,-3,2.5,0.001000274,0.015387188,0.178042048,-0.000522164,-0.012451816,0.000917887,,,,,,,,,,,,,
0_495_-3,0,495,-3,2,0.001378698,0.009154366,0.118918153,-0.000192916,-0.008480388,0.000428405,,,,,,,,,,,,,
0_510_-3,0,510,-3,3.5,-0.001776237,0.034049317,0.334257596,-0.001696218,-0.021986157,0.002079292,,,,,,,,,,,,,
0_510_-3,0,510,-3,3.25,-0.000738643,0.029420406,0.296558544,-0.001359938,-0.01970317,0.001796913,,,,,,,,,,,,,
0_510_-3,0,510,-3,3,0.00014742,0.025263024,0.260393158,-0.001064205,-0.017511786,0.001520435,,,,,,,,,,,,,
0_510_-3,0,510,-3,2.75,0.000626747,0.018840896,0.215607766,-0.000733378,-0.014842261,0.001209834,,,,,,,,,,,,,
0_510_-3,0,510,-3,2.5,0.001186006,0.015269795,0.178816799,-0.000491199,-0.012558053,0.000885259,,,,,,,,,,,,,
0_510_-3,0,510,-3,2,0.001519639,0.009012971,0.119775243,-0.000178169,-0.008553628,0.000400405,,,,,,,,,,,,,
0_540_-3,0,540,-3,3.5,-0.001046923,0.034181367,0.34181848,-0.001604732,-0.022659597,0.002091308,,,,,,,,,,,,,
0_540_-3,0,540,-3,3.25,-6.65E-05,0.029670003,0.302867356,-0.001277818,-0.020301011,0.00179422,,,,,,,,,,,,,
0_540_-3,0,540,-3,3,0.000470385,0.022970961,0.260225987,-0.000937137,-0.017677892,0.001506668,,,,,,,,,,,,,
0_540_-3,0,540,-3,2.75,0.001191879,0.018726481,0.215183361,-0.000640638,-0.015028026,0.001126044,,,,,,,,,,,,,
0_540_-3,0,540,-3,2.5,0.001530197,0.015058838,0.180570227,-0.000431474,-0.012755936,0.000827043,,,,,,,,,,,,,
0_540_-3,0,540,-3,2,0.00183808,0.008774968,0.121642516,-0.000153653,-0.008706474,0.000347026,,,,,,,,,,,,,
0_570_-3,0,570,-3,3.5,-0.000326431,0.034457715,0.348446128,-0.001513589,-0.023293468,0.002088756,,,,,,,,,,,,,
0_570_-3,0,570,-3,3.25,0.000519005,0.02949576,0.308857776,-0.001211468,-0.020857314,0.001780512,,,,,,,,,,,,,
0_570_-3,0,570,-3,3,0.001129505,0.022494316,0.255649684,-0.000817631,-0.017732918,0.001398012,,,,,,,,,,,,,
0_570_-3,0,570,-3,2.75,0.001606077,0.018475484,0.216848221,-0.000571606,-0.015255618,0.001055201,,,,,,,,,,,,,
0_570_-3,0,570,-3,2.5,0.001829002,0.014821939,0.182338189,-0.000373885,-0.012933284,0.000769556,,,,,,,,,,,,,
0_570_-3,0,570,-3,2,0.002209818,0.008529052,0.12348674,-0.000135244,-0.008849131,0.000294788,,,,,,,,,,,,,
0_600_-3,0,600,-3,3.5,0.000258426,0.034319691,0.354962623,-0.001443568,-0.023898573,0.002074598,,,,,,,,,,,,,
0_600_-3,0,600,-3,3.25,0.000872545,0.026456127,0.301625154,-0.001035373,-0.020721805,0.001716423,,,,,,,,,,,,,
0_600_-3,0,600,-3,3,0.001644936,0.022268703,0.256598048,-0.000731703,-0.017969228,0.001315892,,,,,,,,,,,,,
0_600_-3,0,600,-3,2.75,0.001984139,0.0182602,0.218709525,-0.000505697,-0.015460015,0.000994039,,,,,,,,,,,,,
0_600_-3,0,600,-3,2.5,0.002137557,0.014596074,0.1842239,-0.000320978,-0.013106658,0.000712674,,,,,,,,,,,,,
0_600_-3,0,600,-3,2,0.002592918,0.008221446,0.125505791,-0.000121143,-0.009001684,0.000236009,,,,,,,,,,,,,
0_240_-2,0,240,-2,3.5,-0.008478061,0.011831604,0.204896258,-0.001964208,-0.010221849,0.000602085,,,,,,,,,,,,,
0_240_-2,0,240,-2,3.25,-0.007961017,0.011908138,0.189542219,-0.001754222,-0.009666429,0.000610026,,,,,,,,,,,,,
0_240_-2,0,240,-2,3,-0.007351229,0.011994695,0.175207819,-0.001552988,-0.009211076,0.000629675,,,,,,,,,,,,,
0_240_-2,0,240,-2,2.75,-0.006137482,0.011490332,0.158914984,-0.001334639,-0.008782032,0.000666338,,,,,,,,,,,,,
0_240_-2,0,240,-2,2.5,-0.004396545,0.010184373,0.13717239,-0.001085614,-0.00803837,0.000641165,,,,,,,,,,,,,
0_240_-2,0,240,-2,2,-0.001559184,0.00831293,0.099706023,-0.000645049,-0.006377718,0.000523258,,,,,,,,,,,,,
0_300_-2,0,300,-2,3.5,-0.010092147,0.018298652,0.255004471,-0.002162911,-0.013963813,0.001049774,,,,,,,,,,,,,
0_300_-2,0,300,-2,3.25,-0.008165107,0.016992364,0.229379999,-0.001858576,-0.01316354,0.001037228,,,,,,,,,,,,,
0_300_-2,0,300,-2,3,-0.005387598,0.015391048,0.201557911,-0.001537301,-0.01212161,0.000984819,,,,,,,,,,,,,
0_300_-2,0,300,-2,2.75,-0.00361076,0.014271967,0.178676285,-0.001265521,-0.01109966,0.000906432,,,,,,,,,,,,,
0_300_-2,0,300,-2,2.5,-0.002476261,0.013098311,0.156406479,-0.001012199,-0.010018134,0.000824212,,,,,,,,,,,,,
0_300_-2,0,300,-2,2,-0.000640102,0.009787843,0.113549922,-0.000567793,-0.007592121,0.000592255,,,,,,,,,,,,,
0_330_-2,0,330,-2,3.5,-0.009058907,0.01997048,0.268144044,-0.002145409,-0.015595597,0.001242416,,,,,,,,,,,,,
0_330_-2,0,330,-2,3.25,-0.00589753,0.018546085,0.238989678,-0.001794892,-0.014503401,0.001182957,,,,,,,,,,,,,
0_330_-2,0,330,-2,3,-0.004251027,0.017192627,0.213955805,-0.00150512,-0.013332395,0.001092105,,,,,,,,,,,,,
0_330_-2,0,330,-2,2.75,-0.003006695,0.015913754,0.189507867,-0.001227036,-0.012144702,0.001001531,,,,,,,,,,,,,
0_330_-2,0,330,-2,2.5,-0.001898644,0.014526355,0.165810717,-0.000957921,-0.010868714,0.000888302,,,,,,,,,,,,,
0_330_-2,0,330,-2,2,-0.000249845,0.009924981,0.118180073,-0.000528962,-0.008023527,0.000592403,,,,,,,,,,,,,
0_360_-2,0,360,-2,3.5,-0.006529798,0.021951023,0.279775816,-0.002077076,-0.017078558,0.001397065,,,,,,,,,,,,,
0_360_-2,0,360,-2,3.25,-0.004939827,0.020398483,0.252380697,-0.001765638,-0.015768789,0.001296177,,,,,,,,,,,,,
0_360_-2,0,360,-2,3,-0.003584934,0.019016147,0.225770968,-0.001462802,-0.014475636,0.001197148,,,,,,,,,,,,,
0_360_-2,0,360,-2,2.75,-0.002366636,0.017518914,0.199835239,-0.001166609,-0.013084519,0.001073998,,,,,,,,,,,,,
0_360_-2,0,360,-2,2.5,-0.001273013,0.015302136,0.174374577,-0.000920008,-0.011600867,0.000926512,,,,,,,,,,,,,
0_360_-2,0,360,-2,2,0.000169091,0.009736139,0.12244289,-0.000500703,-0.00843734,0.000593956,,,,,,,,,,,,,
0_390_-2,0,390,-2,3.5,-0.005678832,0.023891519,0.293961093,-0.002047118,-0.018409542,0.001518931,,,,,,,,,,,,,
0_390_-2,0,390,-2,3.25,-0.00421131,0.022406579,0.265196602,-0.001719626,-0.017011208,0.001411227,,,,,,,,,,,,,
0_390_-2,0,390,-2,3,-0.002881957,0.020795243,0.237015419,-0.001396586,-0.015504924,0.001277934,,,,,,,,,,,,,
0_390_-2,0,390,-2,2.75,-0.001662992,0.018524608,0.20943406,-0.001125888,-0.013911005,0.001120156,,,,,,,,,,,,,
0_390_-2,0,390,-2,2.5,-0.000710647,0.015556785,0.180723006,-0.000865968,-0.012170106,0.000935213,,,,,,,,,,,,,
0_390_-2,0,390,-2,2,0.000610195,0.008866418,0.119590142,-0.000410142,-0.008474761,0.000551658,,,,,,,,,,,,,
0_405_-2,0,405,-2,3.5,-0.005312022,0.024943962,0.300803327,-0.002027482,-0.019079398,0.001582021,,,,,,,,,,,,,
0_405_-2,0,405,-2,3.25,-0.003835451,0.023425888,0.271447693,-0.001683333,-0.017593678,0.001461132,,,,,,,,,,,,,
0_405_-2,0,405,-2,3,-0.002496196,0.021535344,0.242404895,-0.001371597,-0.015978843,0.001307779,,,,,,,,,,,,,
0_405_-2,0,405,-2,2.75,-0.001332038,0.018719424,0.213542654,-0.001100261,-0.014262492,0.001132288,,,,,,,,,,,,,
0_405_-2,0,405,-2,2.5,-0.000476298,0.015589139,0.183428875,-0.000843265,-0.012424758,0.000934005,,,,,,,,,,,,,
0_405_-2,0,405,-2,2,0.000802191,0.008815364,0.120369918,-0.00039036,-0.00859144,0.000528949,,,,,,,,,,,,,
0_420_-2,0,420,-2,3.5,-0.004887722,0.026087448,0.307787477,-0.00199733,-0.019751736,0.00164402,,,,,,,,,,,,,
0_420_-2,0,420,-2,3.25,-0.00344985,0.024354233,0.277354649,-0.001647755,-0.018130128,0.001500642,,,,,,,,,,,,,
0_420_-2,0,420,-2,3,-0.002102838,0.022041513,0.247598541,-0.001351807,-0.016423628,0.001331932,,,,,,,,,,,,,
0_420_-2,0,420,-2,2.75,-0.001011013,0.018869302,0.216965447,-0.001069024,-0.014571721,0.001136854,,,,,,,,,,,,,
0_420_-2,0,420,-2,2.5,-0.000194695,0.015771207,0.186690632,-0.000824832,-0.01271972,0.000938595,,,,,,,,,,,,,
0_420_-2,0,420,-2,2,0.000988845,0.008741318,0.121286341,-0.000373447,-0.008704747,0.000506661,,,,,,,,,,,,,
0_435_-2,0,435,-2,3.5,-0.004488252,0.027189902,0.314495499,-0.001958374,-0.020380427,0.001698321,,,,,,,,,,,,,
0_435_-2,0,435,-2,3.25,-0.003031523,0.025194531,0.283193671,-0.001619005,-0.01864622,0.001534535,,,,,,,,,,,,,
0_435_-2,0,435,-2,3,-0.001730629,0.022303794,0.252324309,-0.001326658,-0.016823595,0.001348567,,,,,,,,,,,,,
0_435_-2,0,435,-2,2.75,-0.00073017,0.018938821,0.219974631,-0.001040475,-0.014851817,0.001136616,,,,,,,,,,,,,
0_435_-2,0,435,-2,2.5,-2.62E-05,0.015695583,0.189632356,-0.000824705,-0.012986334,0.000936055,,,,,,,,,,,,,
0_435_-2,0,435,-2,2,0.001167105,0.008648165,0.122280639,-0.000357802,-0.008815066,0.000484104,,,,,,,,,,,,,
