Case,Cone_Angle,Omega_RPM,Pitch_Angle,Vz_ms,Avg_Fpx,Avg_Fpy,Avg_Fpz,Avg_Mpx,Avg_Mpy,Avg_Mpz,Cd,Cl,CmPitch,CmRoll,CmYaw,Cs
# Case,nve Cone,Omega_RPM,Pitch_Angle,Vz_ms,Avg_Fpx,Avg_Fpy,Avg_Fpz,Avg_Mpx,Avg_Mpy,Avg_Mpz,Cd,Cl,CmPitch,CmRoll,CmYaw,Cs
5_900_5,5,900,5,3,-0.028484848,-0.021136435,0.500840364,-0.002392483,-0.038957061,-0.002899126,6.002307,-0.312438,6.16657,-0.540554,-0.3617501,0.3076895
7_855_5,7,855,5,3,-0.042778996,-0.020569362,0.4915384,-0.002833987,-0.037985588,-0.002790362,5.893609,-0.4858915,6.015581,-0.5176847,-0.4300594,0.2978428
11_810_5,11,810,5,3,-0.074848929,-0.025344439,0.489497624,-0.003738315,-0.037607616,-0.003307133,5.871164,-0.8748623,5.958181,-0.5929604,-0.5697734,0.3527521
3_900_5,3,900,5,3,-0.012492669,-0.019849725,0.478229056,-0.001868197,-0.037591531,-0.002793542,5.729537,-0.120474,5.948969,-0.5209121,-0.2820295,0.2886442
1_900_5,1,900,5,3,0.001878418,-0.019741914,0.465937458,-0.001431394,-0.0368154,-0.002840459,5.580804,0.05320838,5.824614,-0.5231616,-0.2162776,0.2814999
5_855_5,5,855,5,3,-0.026156018,-0.018214214,0.46203379,-0.002253089,-0.036325371,-0.002597895,5.537752,-0.2854081,5.750503,-0.486975,-0.3407314,0.2688347
9_810_5,9,810,5,3,-0.054222339,-0.019262682,0.461126072,-0.003015081,-0.035947691,-0.00263794,5.531488,-0.6252064,5.695205,-0.4864493,-0.4578652,0.2783284
3_855_5,3,855,5,3,-0.012009448,-0.017164729,0.452467389,-0.001846405,-0.035603424,-0.002482466,5.421567,-0.1152571,5.634936,-0.4654577,-0.2794041,0.2524481
9_855_3,9,855,3,3,-0.052542507,-0.008301304,0.451447675,-0.002832818,-0.03464801,-0.001718604,5.41708,-0.610118,5.493159,-0.3511529,-0.4282552,0.1533079
7_810_5,7,810,5,3,-0.038613779,-0.017520074,0.447912382,-0.0026158,-0.035105177,-0.002467693,5.371262,-0.4368876,5.560145,-0.460907,-0.3967387,0.2576863
1_855_5,1,855,5,3,0.001468861,-0.017092769,0.441437834,-0.001447466,-0.034927397,-0.002534945,5.28785,0.04769174,5.526388,-0.4690074,-0.219376,0.2461961
11_765_5,11,765,5,3,-0.066082996,-0.018265179,0.440694948,-0.003210723,-0.034379026,-0.002585598,5.288778,-0.7692408,5.448948,-0.4707425,-0.4886642,0.2622119
5_810_5,5,810,5,3,-0.024984072,-0.015611852,0.436921505,-0.002211509,-0.034364638,-0.002300121,5.237549,-0.2722277,5.440875,-0.4335827,-0.3352224,0.2335184
9_765_5,9,765,5,3,-0.051367488,-0.016645212,0.434457813,-0.002901904,-0.033882872,-0.002337409,5.21259,-0.5917582,5.369046,-0.4326882,-0.441487,0.2428426
7_855_3,7,855,3,3,-0.036457718,-0.006516102,0.429823621,-0.002433293,-0.033396683,-0.001526254,5.156333,-0.4161303,5.293544,-0.3231162,-0.3672406,0.1331646
11_810_3,11,810,3,3,-0.063202172,-0.007935757,0.428442892,-0.003078355,-0.033098753,-0.001698138,5.14309,-0.7390392,5.249441,-0.3397709,-0.4664201,0.1444908
3_810_5,3,810,5,3,-0.011589366,-0.01470183,0.42755966,-0.001836082,-0.033680263,-0.002192014,5.12378,-0.1110176,5.331195,-0.4135678,-0.2785741,0.2190454
7_765_5,7,765,5,3,-0.037070786,-0.01495489,0.426022189,-0.002557756,-0.03328165,-0.00216213,5.10982,-0.4191393,5.272331,-0.4062047,-0.3888737,0.2227241
3_900_3,3,900,3,3,-0.010191334,-0.004634456,0.422813158,-0.001619484,-0.033078706,-0.001419222,5.068407,-0.09844395,5.239336,-0.3156644,-0.2431803,0.1147285
11_720_5,11,720,5,3,-0.063806927,-0.015556972,0.422427887,-0.003116239,-0.032723409,-0.0022673,5.070777,-0.7424621,5.187644,-0.4141093,-0.4754729,0.2255281
5_825.0_5,5,825,5,2.75,-0.02420322,-0.017824553,0.422403919,-0.002030406,-0.032824561,-0.00244013,6.025477,-0.3150424,6.184024,-0.5444989,-0.3647474,0.3106822
11_675_5,11,675,5,3,-0.064303913,-0.010533047,0.421748481,-0.003177672,-0.031660387,-0.002043062,5.064544,-0.7462954,5.020079,-0.3722062,-0.4872097,0.160812
1_810_5,1,810,5,3,0.000917733,-0.014685727,0.421425765,-0.001481813,-0.033270429,-0.002234531,5.048775,0.04073051,5.264756,-0.4157123,-0.2253603,0.2137372
5_855_3,5,855,3,3,-0.022944059,-0.004657989,0.419001376,-0.002038997,-0.032586142,-0.001353408,5.024952,-0.2532522,5.163437,-0.2974089,-0.3074246,0.110998
9_900_1,9,900,1,3,-0.047398758,0.00249559,0.418343344,-0.002598685,-0.031968377,-0.000780826,5.022799,-0.5554576,5.074288,-0.2178035,-0.3896745,0.03371871
9_810_3,9,810,3,3,-0.048408752,-0.006737546,0.417385472,-0.002673843,-0.032323868,-0.001508196,5.009263,-0.5609646,5.125415,-0.3113305,-0.4046123,0.1303632
9_720_5,9,720,5,3,-0.049796305,-0.014084723,0.416822914,-0.002834002,-0.032269241,-0.002030462,5.002184,-0.5734248,5.114456,-0.3777669,-0.4323059,0.2079256
5_765_5,5,765,5,3,-0.024189312,-0.013226517,0.416685468,-0.002190646,-0.032633035,-0.002009964,4.99589,-0.2633791,5.167579,-0.3814379,-0.3329764,0.2008927
11_900_0,11,900,0,3,-0.059691615,0.007389921,0.413088155,-0.002872024,-0.031109824,-0.000392101,4.962782,-0.7066102,4.94286,-0.160096,-0.4295333,-0.02155945
7_783.75_5,7,783.75,5,2.75,-0.03600723,-0.017233219,0.412615226,-0.002377056,-0.03192836,-0.002341063,5.888783,-0.4855177,6.01813,-0.52005,-0.4284032,0.2992138
9_675_5,9,675,5,3,-0.050162667,-0.009730418,0.412091299,-0.00287922,-0.031205876,-0.001773817,4.946879,-0.5764874,4.946999,-0.3305348,-0.4411428,0.1517593
1_900_3,1,900,3,3,0.001500054,-0.004344396,0.411286644,-0.001056077,-0.032295617,-0.001432237,4.928311,0.04190126,5.112988,-0.3110375,-0.1580428,0.1045103
11_855_1,11,855,1,3,-0.060000001,0.002266,0.410632631,-0.002878446,-0.031284674,-0.00080389,4.931511,-0.7064976,4.966592,-0.2116175,-0.4330364,0.03065228
7_720_5,7,720,5,3,-0.036278749,-0.012489255,0.410534161,-0.002524488,-0.031785351,-0.001851204,4.925284,-0.4099961,5.036407,-0.3505405,-0.384947,0.1889215
7_810_3,7,810,3,3,-0.034922865,-0.004800898,0.409444055,-0.002378965,-0.031734976,-0.001305492,4.91269,-0.3980988,5.03085,-0.2808841,-0.3600429,0.1077162
11_742.5_5,11,742.5,5,2.75,-0.062605442,-0.020518327,0.409010685,-0.003064082,-0.03125831,-0.002707769,5.83972,-0.8701039,5.894483,-0.5821784,-0.5542723,0.3432488
3_765_5,3,765,5,3,-0.011482195,-0.012441382,0.408572521,-0.001847826,-0.032043624,-0.001910682,4.897057,-0.110285,5.072876,-0.363087,-0.2812285,0.1880846
11_765_3,11,765,3,3,-0.060562276,-0.006180684,0.408131694,-0.002967839,-0.031442208,-0.001476548,4.900217,-0.7077312,4.987499,-0.2977559,-0.4507819,0.1187448
3_855_3,3,855,3,3,-0.010302618,-0.002701986,0.407634501,-0.001632677,-0.031767082,-0.001181704,4.887123,-0.09984024,5.032062,-0.2702264,-0.2461272,0.08646726
7_900_1,7,900,1,3,-0.033181014,0.00361057,0.406207283,-0.00223908,-0.031076873,-0.000638112,4.876428,-0.3842394,4.932147,-0.1964377,-0.335882,0.02042428
11_630_5,11,630,5,3,-0.062818907,-0.008691179,0.404705646,-0.003211637,-0.029743504,-0.001869176,4.861268,-0.729479,4.716583,-0.3394517,-0.4943128,0.1325553
5_720_5,5,720,5,3,-0.024001953,-0.010991481,0.402960641,-0.002190181,-0.031248807,-0.001713812,4.832465,-0.2612969,4.94935,-0.3283413,-0.3339655,0.1700451
3_825.0_5,3,825,5,2.75,-0.010636555,-0.016692966,0.40223752,-0.001577257,-0.031622218,-0.002348414,5.735929,-0.1211636,5.955976,-0.5242824,-0.2827748,0.2908427
1_765_5,1,765,5,3,0.0003433,-0.012610689,0.402068432,-0.001512085,-0.031636318,-0.001953789,4.817514,0.03332886,5.006728,-0.36577,-0.2306959,0.1854103
5_810_3,5,810,3,3,-0.022344526,-0.003053469,0.40064444,-0.002012487,-0.031067553,-0.001142503,4.805528,-0.246361,4.923344,-0.2565133,-0.3043858,0.08676891
7_675_5,7,675,5,3,-0.036366288,-0.009786493,0.40054185,-0.002523648,-0.030476782,-0.001560152,4.806496,-0.4108411,4.830154,-0.2980195,-0.3861088,0.1531462
9_765_3,9,765,3,3,-0.046702687,-0.004863029,0.400540626,-0.00261123,-0.03084349,-0.001273795,4.808116,-0.5407198,4.891558,-0.2671461,-0.396328,0.1031804
9_630_5,9,630,5,3,-0.049488705,-0.007997789,0.400158252,-0.002943022,-0.029447253,-0.001630263,4.804979,-0.5687098,4.668464,-0.3028496,-0.4527284,0.1254301
9_855_1,9,855,1,3,-0.045506096,0.003367606,0.398978388,-0.002509595,-0.030453874,-0.000643204,4.790921,-0.5324893,4.834186,-0.187539,-0.3773891,0.01758063
1_855_3,1,855,3,3,0.00112658,-0.002510042,0.395458932,-0.001106561,-0.030940083,-0.001188117,4.739214,0.03740625,4.898797,-0.2654799,-0.1665312,0.07811909
5_675_5,5,675,5,3,-0.024695151,-0.008479664,0.395360954,-0.002236636,-0.030076373,-0.001423419,4.74249,-0.269083,4.764656,-0.2757484,-0.3424047,0.1361209
3_720_5,3,720,5,3,-0.011671794,-0.010401801,0.394682952,-0.00187569,-0.030676232,-0.00163054,4.731478,-0.1127433,4.857176,-0.3128521,-0.2864153,0.1598797
7_765_3,7,765,3,3,-0.033844772,-0.003032763,0.394131459,-0.002337911,-0.030359592,-0.001076735,4.729942,-0.3852766,4.813633,-0.2374966,-0.35493,0.08175064
7_630_5,7,630,5,3,-0.036480723,-0.007250272,0.393403454,-0.0026897,-0.029061224,-0.001451181,4.722115,-0.4111285,4.606099,-0.2758739,-0.4136854,0.1178713
11_720_3,11,720,3,3,-0.058682695,-0.004235041,0.393338936,-0.002881771,-0.030070887,-0.001235515,4.72366,-0.6852824,4.770841,-0.2528573,-0.4389614,0.09087831
9_900_0,9,900,0,3,-0.043525423,0.008123166,0.393290084,-0.00250559,-0.029771521,-0.000226786,4.724671,-0.5129188,4.730164,-0.1363017,-0.3746783,-0.02975375
5_900_1,5,900,1,3,-0.020417129,0.005472312,0.393200029,-0.001885025,-0.030198081,-0.000479419,4.719353,-0.2303768,4.791651,-0.1734076,-0.2829781,-0.001377596
1_825.0_5,1,825,5,2.75,0.001457971,-0.016632576,0.391739006,-0.001209858,-0.030960681,-0.002389261,5.584666,0.05285095,5.829758,-0.5266263,-0.2170952,0.2839168
7_855_1,7,855,1,3,-0.032274972,0.004626488,0.390316185,-0.00217723,-0.029780079,-0.000489097,4.686194,-0.3730069,4.726499,-0.1640817,-0.3276157,0.00240185
3_810_3,3,810,3,3,-0.010385972,-0.001167405,0.38995373,-0.001640963,-0.030306175,-0.000973172,4.675768,-0.1012261,4.801117,-0.2298551,-0.2482724,0.06326656
11_810_1,11,810,1,3,-0.057089263,0.003157587,0.389323861,-0.002765602,-0.029641382,-0.000659935,4.676342,-0.6715887,4.706192,-0.1809385,-0.4171545,0.01460449
5_783.75_5,5,783.75,5,2.75,-0.022114507,-0.015321393,0.388516821,-0.00189947,-0.030552296,-0.00218467,5.54263,-0.2861505,5.756473,-0.4903256,-0.341169,0.2710474
11_585_5,11,585,5,3,-0.060812959,-0.008241509,0.388104668,-0.003208833,-0.02797371,-0.001618511,4.66296,-0.705527,4.436567,-0.2944614,-0.4955019,0.1239101
11_855_0,11,855,0,3,-0.056623467,0.007540948,0.388066847,-0.002717874,-0.029333338,-0.00031017,4.662642,-0.6694719,4.660586,-0.1379504,-0.4073816,-0.02943805
1_720_5,1,720,5,3,-0.000379174,-0.010714307,0.387714422,-0.001556775,-0.030279559,-0.001680618,4.646255,0.02462627,4.792598,-0.317055,-0.2382848,0.1592882
9_742.5_5,9,742.5,5,2.75,-0.045718054,-0.016206798,0.387650177,-0.002537923,-0.0302302,-0.002219225,5.53512,-0.6263437,5.700499,-0.4897428,-0.4578182,0.2805635
9_720_3,9,720,3,3,-0.045467731,-0.002974096,0.38696025,-0.002563162,-0.029548679,-0.001035853,4.646141,-0.5259446,4.68712,-0.2226114,-0.3902926,0.07600664
5_630_5,5,630,5,3,-0.024850027,-0.006256415,0.386395071,-0.00239224,-0.028623662,-0.001305187,4.635781,-0.2701806,4.534764,-0.2524998,-0.3679977,0.1056429
5_765_3,5,765,3,3,-0.021946599,-0.001417979,0.38635408,-0.001999523,-0.029786463,-0.000927594,4.634977,-0.2416194,4.720987,-0.2152518,-0.3034641,0.06238492
11_675_3,11,675,3,3,-0.058216993,-0.001629187,0.385886568,-0.002844155,-0.028984731,-0.000989863,4.635271,-0.6790652,4.599427,-0.2070297,-0.4348465,0.05557231
7_900_0,7,900,0,3,-0.030299152,0.009626422,0.383779293,-0.002168377,-0.029053078,-7.47E-05,4.610177,-0.3541767,4.615925,-0.1131144,-0.3248022,-0.0481522
3_675_5,3,675,5,3,-0.012158396,-0.008689088,0.38308349,-0.001914259,-0.02939922,-0.001366606,4.593292,-0.1185661,4.655678,-0.2652425,-0.2933004,0.1357246
9_585_5,9,585,5,3,-0.048107485,-0.006018287,0.383055059,-0.002949996,-0.027692695,-0.001429016,4.600523,-0.552844,4.390913,-0.2657042,-0.4553193,0.09725775
9_810_1,9,810,1,3,-0.043798343,0.004357184,0.382619468,-0.002436758,-0.02908982,-0.000493324,4.595227,-0.511786,4.618149,-0.1556915,-0.3676119,0.000216538
7_585_5,7,585,5,3,-0.036545646,-0.006035989,0.381720795,-0.002778567,-0.027569916,-0.001240901,4.583145,-0.4122374,4.370402,-0.2364103,-0.4293291,0.09778743
7_720_3,7,720,3,3,-0.033015281,-0.001298177,0.381055307,-0.002308103,-0.029102506,-0.000850141,4.574005,-0.3753182,4.615161,-0.1947119,-0.3515496,0.05638226
11_900_-1,11,900,-1,3,-0.054327578,0.012380663,0.380976104,-0.002755283,-0.028543303,7.58E-05,4.579833,-0.64679,4.540248,-0.09297287,-0.410209,-0.07729624
3_900_1,3,900,1,3,-0.008967199,0.006774875,0.380964664,-0.00142774,-0.029252633,-0.000352053,4.571526,-0.0921417,4.640447,-0.154301,-0.2141318,-0.01719955
11_630_3,11,630,3,3,-0.058431055,0.001312452,0.380799022,-0.002918265,-0.027686095,-0.000901382,4.575536,-0.6805821,4.393526,-0.1875312,-0.4482976,0.01445837
3_783.75_5,3,783.75,5,2.75,-0.010216338,-0.014440752,0.380571807,-0.001557321,-0.029948009,-0.002087301,5.427689,-0.1157634,5.641273,-0.4686542,-0.2798818,0.2545524
5_855_1,5,855,1,3,-0.019938109,0.006450659,0.380428437,-0.001861766,-0.029090338,-0.000324451,4.566623,-0.2242374,4.616173,-0.1401125,-0.2805118,-0.01894044
1_810_3,1,810,3,3,0.000702709,-0.000906035,0.380374973,-0.001164849,-0.029630463,-0.000965655,4.559039,0.03235614,4.691891,-0.2235266,-0.176247,0.05460646
9_783.75_3,9,783.75,3,2.75,-0.044303724,-0.006974553,0.379490628,-0.002388061,-0.029135809,-0.001447029,5.420374,-0.6114084,5.498145,-0.3548579,-0.4288128,0.155455
3_630_5,3,630,5,3,-0.013381906,-0.006093749,0.378484977,-0.002144085,-0.028271799,-0.001264873,4.538582,-0.1319689,4.477257,-0.244229,-0.3304307,0.1013865
9_855_0,9,855,0,3,-0.042420538,0.008691578,0.378233034,-0.002405088,-0.028558004,-0.00012246,4.544138,-0.499086,4.537222,-0.109808,-0.360823,-0.04328648
9_630_3,9,630,3,3,-0.046062556,0.001806794,0.377265953,-0.002684268,-0.027411279,-0.000701501,4.53204,-0.5310499,4.349191,-0.1568629,-0.4126053,0.009190232
3_765_3,3,765,3,3,-0.010610334,0.000464325,0.376789129,-0.001660856,-0.029114373,-0.000764626,4.518591,-0.1040474,4.612819,-0.189694,-0.2522268,0.03904882
9_675_3,9,675,3,3,-0.044815688,-0.001001319,0.376478165,-0.002531255,-0.028379509,-0.000796005,4.521276,-0.5179554,4.502544,-0.1779192,-0.3867688,0.04808246
7_742.5_5,7,742.5,5,2.75,-0.032557112,-0.014736616,0.376284247,-0.002200476,-0.029506802,-0.00207538,5.371026,-0.4373643,5.562437,-0.4641099,-0.3964079,0.2598303
1_675_5,1,675,5,3,-0.001232115,-0.009112761,0.375979774,-0.001611964,-0.029020606,-0.001409793,4.506387,0.01456238,4.593946,-0.2687655,-0.2475307,0.1367991
11_765_1,11,765,1,3,-0.055210733,0.004353716,0.375209886,-0.002672388,-0.028412498,-0.00049213,4.507647,-0.6488193,4.511646,-0.1463631,-0.4044039,-0.00516323
7_810_1,7,810,1,3,-0.031349976,0.005567073,0.37494637,-0.002126896,-0.028502696,-0.000345945,4.502253,-0.3616137,4.524051,-0.133201,-0.3210896,-0.01428671
5_720_3,5,720,3,3,-0.021630864,0.000169861,0.374045864,-0.001995994,-0.02860371,-0.000706957,4.488255,-0.2377236,4.534293,-0.1734113,-0.3039917,0.03883848
1_630_5,1,630,5,3,-0.002897778,-0.007006878,0.373549041,-0.001821116,-0.028122783,-0.001237918,4.477376,-0.003421138,4.451981,-0.2363709,-0.2811095,0.1094089
5_585_5,5,585,5,3,-0.024687103,-0.003765125,0.372432092,-0.002446793,-0.027109834,-0.001122011,4.469184,-0.2689908,4.295487,-0.2180292,-0.3778041,0.07067493
7_630_3,7,630,3,3,-0.033930818,0.002926141,0.372071927,-0.002472179,-0.027095701,-0.000510315,4.468192,-0.3841674,4.298094,-0.127821,-0.3801771,-0.003211565
7_855_0,7,855,0,3,-0.029999826,0.010281234,0.372008705,-0.002107867,-0.028072742,3.66E-05,4.469124,-0.3496816,4.460007,-0.08545616,-0.3169038,-0.06271419
5_900_0,5,900,0,3,-0.018008298,0.010103259,0.371443464,-0.00171623,-0.028148577,-1.84E-05,4.460958,-0.2062357,4.47091,-0.1041197,-0.2570075,-0.05500927
11_810_0,11,810,0,3,-0.054389201,0.008053661,0.371251846,-0.002608226,-0.027989258,-0.000202582,4.461199,-0.6422331,4.447252,-0.1120104,-0.3922221,-0.04169518
1_783.75_5,1,783.75,5,2.75,0.001123487,-0.014413387,0.371190622,-0.001222351,-0.029374552,-0.002131687,5.292251,0.04745699,5.531608,-0.472095,-0.2200307,0.2485745
3_855_1,3,855,1,3,-0.009250375,0.00799527,0.370866289,-0.001442756,-0.028347659,-0.000189332,4.450689,-0.09499318,4.496864,-0.1199138,-0.2173432,-0.03754822
7_675_3,7,675,3,3,-0.032623965,0.000463637,0.370646539,-0.002291674,-0.027949532,-0.000619582,4.450082,-0.3704294,4.43319,-0.1513196,-0.3502799,0.0307042
11_701.25_5,11,701.25,5,2.75,-0.055717796,-0.01535794,0.370640718,-0.002701776,-0.028916657,-0.002175081,5.294746,-0.7709334,5.45519,-0.4737284,-0.4885122,0.2641652
9_900_-1,9,900,-1,3,-0.03993792,0.013218494,0.369980195,-0.002396834,-0.0276534,0.000258487,4.448107,-0.4742972,4.399314,-0.06388182,-0.3574744,-0.0884984
9_765_1,9,765,1,3,-0.042476794,0.005469864,0.369280235,-0.002372333,-0.027907341,-0.000330835,4.435829,-0.4956413,4.430994,-0.12202,-0.359137,-0.01847979
1_765_3,1,765,3,3,0.000194014,0.000560911,0.367781707,-0.00122879,-0.028484155,-0.000761071,4.408733,0.02649856,4.51087,-0.1845727,-0.1868395,0.03285374
5_742.5_5,5,742.5,5,2.75,-0.021122392,-0.013133299,0.367541646,-0.001863387,-0.02890661,-0.001933807,5.244226,-0.2728837,5.447223,-0.4365689,-0.3354908,0.2355654
1_900_1,1,900,1,3,0.001812399,0.009140862,0.367458104,-0.000954198,-0.028331296,-0.000201289,4.408227,0.03830227,4.492675,-0.1302992,-0.1426825,-0.04604978
5_810_1,5,810,1,3,-0.019593562,0.007367367,0.367017941,-0.001839943,-0.027950324,-0.000177438,4.406206,-0.2197451,4.435579,-0.1085827,-0.278212,-0.03536848
3_585_5,3,585,5,3,-0.013780477,-0.004831538,0.366629086,-0.002191296,-0.026797146,-0.001065871,4.397277,-0.1370331,4.244122,-0.2075663,-0.3387887,0.08221325
5_630_3,5,630,3,3,-0.022897066,0.005410411,0.366423494,-0.002144971,-0.026807592,-0.000340052,4.398616,-0.25025,4.25064,-0.1020272,-0.3296426,-0.03210427
3_720_3,3,720,3,3,-0.010862267,0.001889111,0.365420407,-0.001691817,-0.028016742,-0.00056402,4.382926,-0.1070047,4.439419,-0.1510719,-0.2579186,0.01753159
11_855_-1,11,855,-1,3,-0.051977535,0.012860908,0.365397203,-0.002650021,-0.027304461,0.000193216,4.393172,-0.6177361,4.343435,-0.06408218,-0.3960211,-0.0900691
9_701.25_5,9,701.25,5,2.75,-0.043301309,-0.014005705,0.365224408,-0.002441559,-0.028489607,-0.001966824,5.215967,-0.5926828,5.373308,-0.4357754,-0.4412676,0.2448965
11_585_3,11,585,3,3,-0.056773831,0.003177264,0.364992886,-0.002909021,-0.02607897,-0.000736631,4.386556,-0.6610088,4.138981,-0.1558748,-0.4484905,-0.01287411
9_810_0,9,810,0,3,-0.041378791,0.009226632,0.364862117,-0.002321395,-0.02743762,-2.44E-05,4.383924,-0.4860215,4.35921,-0.08509733,-0.3494902,-0.05590143
11_540_5,11,540,5,3,-0.057757489,-0.006241537,0.364158776,-0.003045131,-0.025834034,-0.001359294,4.375911,-0.669958,4.097811,-0.2486176,-0.4709814,0.09688174
5_675_3,5,675,3,3,-0.021594741,0.001655275,0.364026892,-0.002013972,-0.027510961,-0.000484784,4.368978,-0.2369395,4.361831,-0.1313959,-0.3079105,0.01661864
9_540_5,9,540,5,3,-0.046728116,-0.005853997,0.363751497,-0.002901818,-0.025769718,-0.001171709,4.369669,-0.536755,4.086648,-0.2195896,-0.4491707,0.09211759
11_720_1,11,720,1,3,-0.053600334,0.005685926,0.363017598,-0.002592783,-0.027290521,-0.000316516,4.362031,-0.6291556,4.33406,-0.1111413,-0.3936535,-0.02611881
7_765_1,7,765,1,3,-0.030655288,0.006685665,0.362960136,-0.002086488,-0.027422967,-0.000190374,4.359016,-0.3528571,4.353094,-0.1005991,-0.3161059,-0.03295375
5_855_0,5,855,0,3,-0.018060667,0.010927606,0.361550223,-0.001680783,-0.027272049,0.000114443,4.342442,-0.2060381,4.33157,-0.07365123,-0.2526044,-0.07114256
7_783.75_3,7,783.75,3,2.75,-0.030784855,-0.00547694,0.361530686,-0.002050969,-0.028095212,-0.001284548,5.162523,-0.4173127,5.300495,-0.3266955,-0.3676398,0.1353158
9_585_3,9,585,3,3,-0.044677256,0.003175615,0.361043024,-0.002662062,-0.025826773,-0.000546433,4.33778,-0.5150611,4.098154,-0.1269924,-0.4103902,-0.01136872
1_585_5,1,585,5,3,-0.003584073,-0.005807188,0.360529124,-0.001919963,-0.026490329,-0.001091858,4.322031,-0.01270634,4.193666,-0.2087833,-0.2974157,0.09086698
7_540_5,7,540,5,3,-0.035385811,-0.004415447,0.36038113,-0.002723749,-0.025646458,-0.001037553,4.327522,-0.3996276,4.065971,-0.1991044,-0.4218906,0.07463301
11_742.5_3,11,742.5,3,2.75,-0.053308699,-0.006669567,0.360351716,-0.002594172,-0.027847,-0.001430766,5.149183,-0.741051,5.256948,-0.3433252,-0.4669234,0.1465008
1_630_5,-1,630,5,3,0.008176495,-0.008738341,0.360260749,-0.001365122,-0.027227124,-0.001179683,4.315934,0.1270977,4.308106,-0.2235047,-0.2108538,0.12482
7_900_-1,7,900,-1,3,-0.027140184,0.01444,0.359888057,-0.001991778,-0.026853637,0.000421687,4.326871,-0.3204672,4.272266,-0.03822875,-0.2973018,-0.1040497
3_742.5_5,3,742.5,5,2.75,-0.009852992,-0.012370766,0.359664416,-0.001547436,-0.028331886,-0.001843604,5.130209,-0.1114072,5.337524,-0.4166158,-0.2788605,0.220998
11_630_1,11,630,1,3,-0.054324145,0.011208993,0.358970282,-0.00267156,-0.025710157,-5.31E-05,4.315298,-0.6351279,4.083617,-0.05486853,-0.4099688,-0.1037012
11_765_0,11,765,0,3,-0.052650099,0.008926658,0.358899169,-0.002517847,-0.026906603,-6.64E-05,4.313465,-0.6208077,4.275571,-0.08184672,-0.3800277,-0.05807328
3_900_0,3,900,0,3,-0.006838512,0.012421652,0.358875398,-0.001345201,-0.027284899,0.00019317,4.310134,-0.07154201,4.333746,-0.07283097,-0.2016103,-0.08200185
7_810_0,7,810,0,3,-0.029480406,0.010785334,0.358194814,-0.002046649,-0.026948198,0.000137454,4.303551,-0.3428,4.281307,-0.06055059,-0.3087363,-0.07469218
7_701.25_5,7,701.25,5,2.75,-0.031271274,-0.012584806,0.358155708,-0.002151771,-0.027984135,-0.001817679,5.113387,-0.4197815,5.276465,-0.4089825,-0.3886163,0.2247452
3_810_1,3,810,1,3,-0.009223666,0.00894638,0.357955282,-0.001463604,-0.027254159,-4.27E-05,4.296162,-0.09434931,4.323547,-0.08868832,-0.2214355,-0.0542158
9_855_-1,9,855,-1,3,-0.038830892,0.013382458,0.35778967,-0.002295756,-0.026654529,0.000327956,4.301723,-0.4598415,4.239989,-0.0415499,-0.3437983,-0.09812823
9_720_1,9,720,1,3,-0.041367306,0.006671184,0.35762202,-0.002317576,-0.026823991,-0.000159966,4.296576,-0.4819613,4.259545,-0.08748444,-0.3520766,-0.03786988
1_855_1,1,855,1,3,0.001069976,0.010080948,0.356921373,-0.000986344,-0.027412772,-6.06E-05,4.28201,0.02997279,4.346917,-0.09932954,-0.148333,-0.06309249
1_720_3,1,720,3,3,-0.000406298,0.00189193,0.356907127,-0.001293053,-0.027437134,-0.000566978,4.279025,0.01971674,4.345585,-0.1475018,-0.1974601,0.01291076
7_585_3,7,585,3,3,-0.033062676,0.005234461,0.355961826,-0.002470066,-0.02553842,-0.000383549,4.27522,-0.3747563,4.051385,-0.1023859,-0.3810077,-0.03586169
3_825.0_3,3,825,3,2.75,-0.008710655,-0.003880266,0.355956428,-0.001368456,-0.027846865,-0.001192327,5.078917,-0.09945811,5.249664,-0.319052,-0.2440178,0.1166942
9_525_5,9,525,5,3,-0.046114697,-0.005425802,0.355946723,-0.002865391,-0.02506695,-0.001100768,4.276125,-0.5297913,3.975383,-0.2066574,-0.4438767,0.08582344
11_525_5,11,525,5,3,-0.056829137,-0.005903262,0.355891229,-0.00299923,-0.025079127,-0.001281544,4.276784,-0.6592163,3.97824,-0.234691,-0.4641934,0.09185884
5_765_1,5,765,1,3,-0.019367397,0.008406011,0.355488931,-0.001822921,-0.026924547,-2.00E-05,4.268435,-0.2166049,4.273205,-0.07570635,-0.2766328,-0.0530248
3_675_3,3,675,3,3,-0.011134261,0.003084534,0.355151449,-0.001734636,-0.026961583,-0.000374206,4.260482,-0.1099464,4.272761,-0.1144895,-0.2654714,-0.000964536
11_660.0_5,11,660,5,2.75,-0.053736575,-0.013107281,0.355007737,-0.002620952,-0.027509282,-0.001909583,5.072696,-0.7432187,5.190851,-0.4172501,-0.4751217,0.227688
11_618.75_5,11,618.75,5,2.75,-0.054170358,-0.00891672,0.354490811,-0.002671631,-0.026626424,-0.001719992,5.067319,-0.7472228,5.025283,-0.3748176,-0.4867963,0.1631654
1_742.5_5,1,742.5,5,2.75,0.000667841,-0.012399021,0.354345867,-0.001249292,-0.027977953,-0.001879408,5.052764,0.04057969,5.269184,-0.4186135,-0.225682,0.2160951
9_765_0,9,765,0,3,-0.040357264,0.009922465,0.353321505,-0.00224696,-0.026418001,9.00E-05,4.245807,-0.4731532,4.1974,-0.05830412,-0.3395079,-0.07009885
11_675_1,11,675,1,3,-0.052459461,0.007208469,0.353301619,-0.002539655,-0.026271876,-0.000136183,4.246141,-0.6149456,4.172854,-0.07546272,-0.3870239,-0.04907042
5_540_5,5,540,5,3,-0.024341282,-0.003024056,0.353103719,-0.002433308,-0.025270724,-0.000917674,4.237909,-0.2659919,4.004659,-0.1804138,-0.3767542,0.05825607
7_525_5,7,525,5,3,-0.0350464,-0.004317376,0.353054189,-0.00269595,-0.024970482,-0.000966124,4.239729,-0.3959382,3.958985,-0.1860443,-0.417912,0.07242514
1_585_5,-1,585,5,3,0.007211556,-0.007583194,0.352975432,-0.001616954,-0.025934378,-0.00109583,4.228604,0.1168499,4.103155,-0.2066133,-0.2510928,0.1084536
11_810_-1,11,810,-1,3,-0.050394662,0.013253104,0.352719284,-0.002543451,-0.026261657,0.000291731,4.241166,-0.5977986,4.177443,-0.03812397,-0.3816519,-0.1018489
5_783.75_3,5,783.75,3,2.75,-0.019421243,-0.003932911,0.352443971,-0.001718346,-0.027414105,-0.001138917,5.031145,-0.254297,5.170304,-0.3009329,-0.307688,0.1133383
9_825.0_1,9,825,1,2.75,-0.040057347,0.002093534,0.352185651,-0.002194529,-0.026917121,-0.000660337,5.033462,-0.5580702,5.085669,-0.2221013,-0.3908438,0.0361077
7_720_1,7,720,1,3,-0.029982701,0.007803945,0.351704352,-0.00205362,-0.026379371,-3.01E-05,4.224542,-0.3443629,4.187915,-0.06771748,-0.3122401,-0.05132954
3_630_3,3,630,3,3,-0.012140352,0.004229836,0.351385534,-0.001825184,-0.026117406,-0.000171915,4.216088,-0.1212389,4.139573,-0.07553483,-0.2805797,-0.01854009
9_630_1,9,630,1,3,-0.041739906,0.012545818,0.351075595,-0.002388159,-0.025312636,0.000109667,4.219409,-0.4840377,4.020128,-0.02997159,-0.3664689,-0.1187352
5_585_3,5,585,3,3,-0.02259784,0.005885868,0.350933987,-0.002227298,-0.02527808,-0.000245274,4.213004,-0.247844,4.008432,-0.08169949,-0.3437124,-0.04291335
9_742.5_3,9,742.5,3,2.75,-0.040803671,-0.005656488,0.350803364,-0.002252793,-0.027176981,-0.001270181,5.01159,-0.5619044,5.129284,-0.3147957,-0.4049162,0.1322954
9_660.0_5,9,660,5,2.75,-0.041961415,-0.011866434,0.350333935,-0.002383228,-0.027128002,-0.001709447,5.004537,-0.5740979,5.117663,-0.3807195,-0.4319132,0.2099953
5_750.0_5,5,750,5,2.5,-0.020219064,-0.014795678,0.350324804,-0.001694576,-0.02719513,-0.002019944,6.047817,-0.3173637,6.200037,-0.5489649,-0.3676144,0.3142313
5_701.25_5,5,701.25,5,2.75,-0.02042278,-0.011148028,0.350261322,-0.001843745,-0.027435313,-0.001690417,4.998626,-0.2636297,5.170873,-0.3843009,-0.3328936,0.2030666
3_540_5,3,540,5,3,-0.014274678,-0.003578425,0.349900702,-0.00224731,-0.025148472,-0.00089731,4.197162,-0.1440356,3.983356,-0.1756872,-0.348602,0.06311779
7_855_-1,7,855,-1,3,-0.026657316,0.014490593,0.349350778,-0.001919208,-0.025971258,0.000478458,4.200226,-0.3133753,4.131368,-0.01838289,-0.2876184,-0.1119027
3_855_0,3,855,0,3,-0.007033342,0.013105871,0.349251732,-0.001351115,-0.026440258,0.000313683,4.194724,-0.07301549,4.199389,-0.04436226,-0.2033996,-0.09637096
5_810_0,5,810,0,3,-0.017936846,0.011503079,0.349022991,-0.001652891,-0.026235575,0.000228602,4.192357,-0.203913,4.166991,-0.04691688,-0.2493225,-0.08376272
5_900_-1,5,900,-1,3,-0.015350552,0.015119294,0.349014626,-0.00165049,-0.026046877,0.000483391,4.195854,-0.1791192,4.143579,-0.02794912,-0.2472801,-0.1139554
9_675_1,9,675,1,3,-0.04058269,0.007991749,0.347856487,-0.002280594,-0.025828173,1.42E-05,4.180014,-0.4720103,4.101938,-0.05279547,-0.3477447,-0.05840603
11_720_0,11,720,0,3,-0.051145427,0.009977206,0.347792032,-0.00244003,-0.025894156,8.14E-05,4.180669,-0.6021845,4.115024,-0.05060436,-0.3696079,-0.07599621
5_900_3,5,900,3,3,-0.017360065,-0.011542279,0.347774095,-0.002061199,-0.029138595,-0.001980816,4.167616,-0.1889516,4.615047,-0.4123805,-0.3089273,0.2051317
7_765_0,7,765,0,3,-0.029101581,0.011433118,0.34749333,-0.001988249,-0.02599661,0.000242762,4.1754,-0.3375202,4.130152,-0.03520356,-0.3009754,-0.08820893
1_675_3,1,675,3,3,-0.0010816,0.003035779,0.347340215,-0.001364716,-0.026432953,-0.000381084,4.164941,0.01213522,4.18705,-0.1119354,-0.2092479,-0.004618094
3_765_1,3,765,1,3,-0.009130571,0.00993376,0.347078072,-0.001495586,-0.026281397,0.000100592,4.166075,-0.09277178,4.169466,-0.05819439,-0.2272775,-0.07113573
11_825.0_0,11,825,0,2.75,-0.050261362,0.006147137,0.346780568,-0.002421472,-0.026137851,-0.000337676,4.959424,-0.7076234,4.943489,-0.1651749,-0.4300976,-0.01826957
9_810_-1,9,810,-1,3,-0.038607305,0.013613531,0.34669465,-0.002198495,-0.025759513,0.00039533,4.168305,-0.4561848,4.096887,-0.02049095,-0.3305121,-0.1078985
1_810_1,1,810,1,3,0.000434207,0.010970371,0.346605301,-0.001018421,-0.026497058,8.30E-05,4.158538,0.02285368,4.201759,-0.06835623,-0.1539572,-0.07922431
5_525_5,5,525,5,3,-0.024245896,-0.00284607,0.346127918,-0.002431048,-0.024627084,-0.000857711,4.154358,-0.2652164,3.90281,-0.1692042,-0.3767725,0.05496072
9_618.75_5,9,618.75,5,2.75,-0.042225337,-0.008307131,0.346044824,-0.002416322,-0.026215547,-0.001493772,4.944771,-0.5765793,4.946656,-0.3332257,-0.439896,0.1551296
1_825.0_3,1,825,3,2.75,0.0011443,-0.003656715,0.345937436,-0.000892339,-0.027168925,-0.001202505,4.933936,0.04133717,5.119425,-0.3141471,-0.1585272,0.1065758
11_540_3,11,540,3,3,-0.054734606,0.003060102,0.345884305,-0.002835867,-0.02425057,-0.000551804,4.157671,-0.6370051,3.849296,-0.1213677,-0.4383739,-0.01433483
3_585_3,3,585,3,3,-0.012692903,0.006282212,0.345354839,-0.001996913,-0.024954048,-0.000131723,4.144133,-0.1271452,3.955268,-0.06421153,-0.3085121,-0.04743861
11_783.75_1,11,783.75,1,2.75,-0.05054444,0.001891368,0.345045654,-0.002426067,-0.026302844,-0.000679753,4.932791,-0.7077122,4.970512,-0.2156561,-0.4334927,0.03304669
7_660.0_5,7,660,5,2.75,-0.030581735,-0.010528228,0.345032768,-0.002122502,-0.02671799,-0.001558042,4.927311,-0.4103242,5.0389,-0.3533857,-0.3845001,0.1910058
5_720_1,5,720,1,3,-0.0191041,0.00942415,0.34500985,-0.00181209,-0.025942542,0.000138423,4.143244,-0.2129883,4.117781,-0.04301417,-0.2759862,-0.07022532
9_540_3,9,540,3,3,-0.043971439,0.003663486,0.344989648,-0.002679961,-0.024198196,-0.000395997,4.145698,-0.5068726,3.840184,-0.09735883,-0.4147583,-0.02165445
1_540_5,1,540,5,3,-0.004602485,-0.004685992,0.344301978,-0.001982149,-0.024897378,-0.000913858,4.127736,-0.02588497,3.941632,-0.1757887,-0.3079703,0.0741061
7_742.5_3,7,742.5,3,2.75,-0.029465148,-0.004039787,0.344279959,-0.002003736,-0.02669014,-0.001098794,4.91708,-0.3988783,5.036157,-0.2841655,-0.3601986,0.1097552
1_900_0,1,900,0,3,0.005318891,0.015057836,0.344044986,-0.001038006,-0.026067544,0.000406503,4.132173,0.07404428,4.140858,-0.04315879,-0.1563014,-0.1112438
3_701.25_5,3,701.25,5,2.75,-0.009736797,-0.010486689,0.343438229,-0.001555568,-0.026939197,-0.001607836,4.89961,-0.1103589,5.075929,-0.3660544,-0.2812258,0.1901134
11_630_0,11,630,0,3,-0.051370884,0.015961238,0.343404444,-0.002452684,-0.024535707,0.00032558,4.129311,-0.6020995,3.899299,0.003604277,-0.3754123,-0.1589072
11_701.25_3,11,701.25,3,2.75,-0.051045395,-0.005210101,0.343148706,-0.002499288,-0.026443915,-0.00124434,4.904361,-0.7091302,4.992911,-0.3010332,-0.4509754,0.1208005
3_525_5,3,525,5,3,-0.014374976,-0.003386227,0.343128664,-0.002243567,-0.024524509,-0.000836628,4.116078,-0.1456189,3.884651,-0.1644449,-0.3483048,0.05975568
3_783.75_3,3,783.75,3,2.75,-0.008783446,-0.00228711,0.342849624,-0.001377433,-0.026722928,-0.000994208,4.892602,-0.1005993,5.038283,-0.2736344,-0.2466046,0.08869866
11_585_1,11,585,1,3,-0.052629052,0.011219946,0.342701192,-0.002616236,-0.024188667,6.43E-05,4.120333,-0.6147829,3.842254,-0.03092934,-0.4025198,-0.106752
9_720_0,9,720,0,3,-0.039348007,0.010829869,0.342690293,-0.002189261,-0.025449712,0.000225888,4.118657,-0.4604313,4.043848,-0.02890353,-0.3319833,-0.08626062
11_765_-1,11,765,-1,3,-0.049581821,0.013721219,0.342556371,-0.00243198,-0.025390129,0.000383597,4.119228,-0.5870704,4.038397,-0.01358083,-0.3664237,-0.1142601
7_675_1,7,675,1,3,-0.029469089,0.008956998,0.341885241,-0.002038605,-0.025387844,0.000138198,4.10731,-0.3376751,4.031019,-0.03397834,-0.3111201,-0.069851
7_825.0_1,7,825,1,2.75,-0.028047998,0.003003497,0.341642766,-0.001890728,-0.026147508,-0.000538496,4.882075,-0.38591,4.939598,-0.200396,-0.3368558,0.0232464
7_630_1,7,630,1,3,-0.030189245,0.011519425,0.341094599,-0.002111531,-0.024755735,0.000284531,4.098309,-0.3450163,3.930948,-0.003214984,-0.3239738,-0.1049507
7_712.5_5,7,712.5,5,2.5,-0.02981001,-0.014219171,0.340619643,-0.001962072,-0.026385103,-0.001933045,5.883385,-0.4850087,6.018486,-0.5232047,-0.426862,0.3012494
9_585_1,9,585,1,3,-0.041522133,0.011731435,0.340541108,-0.002438629,-0.023995654,0.000214318,4.093478,-0.4808203,3.811141,-0.007727134,-0.3757862,-0.1131513
5_855_-1,5,855,-1,3,-0.015705005,0.015612146,0.340381322,-0.001617858,-0.02533348,0.000579095,4.09211,-0.1820525,4.02961,-0.002376843,-0.243408,-0.126695
11_577.5_5,11,577.5,5,2.75,-0.052905351,-0.007402308,0.340131134,-0.002699781,-0.024999956,-0.001575535,4.863511,-0.7301816,4.718768,-0.3422268,-0.4938924,0.1351415
7_540_3,7,540,3,3,-0.032684946,0.005686663,0.339833926,-0.002495683,-0.023951454,-0.00025051,4.082155,-0.3707549,3.799983,-0.07561548,-0.3863538,-0.04572352
1_585_3,1,585,3,3,-0.003199391,0.005500013,0.339722652,-0.001705494,-0.024636478,-0.000126167,4.074343,-0.01139248,3.90291,-0.06023963,-0.2640717,-0.04104358
1_630_3,1,630,3,3,-0.001924717,0.003925068,0.339598694,-0.001454391,-0.025456782,-0.000193122,4.072639,0.002497977,4.032894,-0.07603197,-0.223899,-0.01906031
11_525_3,11,525,3,3,-0.054181251,0.003278064,0.339298432,-0.00281233,-0.023631054,-0.000502312,4.078713,-0.6305955,3.751122,-0.1117101,-0.4351903,-0.01824752
5_765_0,5,765,0,3,-0.017826181,0.012178943,0.338756893,-0.001635684,-0.02532825,0.000345992,4.069449,-0.2019328,4.022992,-0.01991257,-0.2477118,-0.09739299
3_810_0,3,810,0,3,-0.007163206,0.01356564,0.338730392,-0.001358688,-0.025529038,0.000415505,4.068586,-0.07380829,4.054595,-0.01935691,-0.2054539,-0.1076892
5_660.0_5,5,660,5,2.75,-0.020257858,-0.009277334,0.338716379,-0.001842003,-0.026268754,-0.001442088,4.835049,-0.2614511,4.952027,-0.3310668,-0.3336762,0.1721652
1_525_5,1,525,5,3,-0.00496881,-0.004438137,0.338535288,-0.002003671,-0.024336067,-0.000858827,4.05866,-0.03064116,3.852801,-0.1654968,-0.3116265,0.07000258
11_675_0,11,675,0,3,-0.049979816,0.011161405,0.338440046,-0.002385457,-0.024950664,0.000232528,4.068949,-0.5874793,3.965418,-0.01928714,-0.3627533,-0.09514717
7_810_-1,7,810,-1,3,-0.026411044,0.014729314,0.338173812,-0.001859366,-0.025057719,0.000547784,4.065939,-0.3093589,3.985602,0.002347485,-0.2797443,-0.1212528
1_701.25_5,1,701.25,5,2.75,0.000187422,-0.010656971,0.338164975,-0.001273751,-0.02660849,-0.001643941,4.822709,0.03320074,5.011854,-0.3685352,-0.2308594,0.1876597
9_525_3,9,525,3,3,-0.043436979,0.004009649,0.337869474,-0.002652471,-0.023581124,-0.000354903,4.060273,-0.5008311,3.742371,-0.08908908,-0.4108571,-0.02710024
3_900_-1,3,900,-1,3,-0.004558993,0.015840383,0.33766438,-0.001216928,-0.025196157,0.000543963,4.059483,-0.04900007,4.008047,-0.01781784,-0.1826222,-0.1237143
1_585_3,-1,585,3,3,0.005909481,0.002861083,0.337559442,-0.001515863,-0.024651648,-0.00025193,4.045552,0.1004055,3.902882,-0.07705017,-0.2360193,-0.01340636
7_720_0,7,720,0,3,-0.028553337,0.012137049,0.337331535,-0.001943415,-0.025066795,0.000361612,4.053792,-0.3302607,3.982596,-0.00835662,-0.2952371,-0.1020052
3_720_1,3,720,1,3,-0.009103127,0.010839835,0.33729839,-0.001527837,-0.025366177,0.000242578,4.049177,-0.09183125,4.024549,-0.02815788,-0.233156,-0.08690322
9_765_-1,9,765,-1,3,-0.038088008,0.014076246,0.3369538,-0.00212046,-0.024919171,0.000482212,4.051398,-0.4490479,3.962891,0.002430153,-0.3199877,-0.119588
5_742.5_3,5,742.5,3,2.75,-0.018890354,-0.002596483,0.336894685,-0.001695285,-0.026128544,-0.000962334,4.809946,-0.247038,4.928422,-0.2599013,-0.304551,0.08910566
1_765_1,1,765,1,3,-0.000134613,0.011673722,0.33681581,-0.001049671,-0.025606772,0.000209352,4.041248,0.01654944,4.060464,-0.04050437,-0.1594237,-0.09288204
9_701.25_3,9,701.25,3,2.75,-0.039377546,-0.004089543,0.336778534,-0.002199469,-0.025938904,-0.001072485,4.812314,-0.5417687,4.896549,-0.2701966,-0.3965692,0.1050356
11_900_-3,11,900,-3,3,-0.047588207,0.017405413,0.336678702,-0.002404762,-0.024502293,0.000546056,4.0532,-0.5718193,3.90732,-0.01484398,-0.3566724,-0.1412687
1_540_5,-1,540,5,3,0.005656349,-0.006462989,0.336483765,-0.001712913,-0.02433008,-0.000937169,4.031346,0.09680036,3.849488,-0.1767605,-0.2667549,0.09173107
9_577.5_5,9,577.5,5,2.75,-0.041688213,-0.006787603,0.336287708,-0.002473021,-0.024747841,-0.001376197,4.806789,-0.5691645,4.669979,-0.3059253,-0.4521468,0.1275686
7_618.75_5,7,618.75,5,2.75,-0.030591262,-0.008363812,0.336219231,-0.00211655,-0.025594139,-0.001313432,4.802563,-0.4103729,4.828083,-0.3006165,-0.3847268,0.1566109
11_675.0_5,11,675,5,2.5,-0.051116446,-0.015681735,0.335839213,-0.002476882,-0.025740758,-0.002122377,5.80448,-0.8572811,5.875219,-0.5575473,-0.5410569,0.3225155
9_783.75_1,9,783.75,1,2.75,-0.038407479,0.002819147,0.335667174,-0.002118064,-0.025627855,-0.000544665,4.798054,-0.5342613,4.842415,-0.1915757,-0.3783198,0.01989736
1_855_0,1,855,0,3,0.004469361,0.015779443,0.335539481,-0.001089628,-0.025350119,0.000515158,4.030022,0.06504749,4.026542,-0.0158787,-0.1649995,-0.1263866
1_630_3,-1,630,3,3,0.00764628,0.000950287,0.335536041,-0.001278444,-0.025194397,-0.000337578,4.021851,0.1180809,3.989358,-0.0956747,-0.1982843,0.01139741
5_675_1,5,675,1,3,-0.018908025,0.010395195,0.335424738,-0.001814963,-0.024985321,0.000293662,4.028708,-0.2100731,3.966219,-0.01118241,-0.2774523,-0.08661378
5_540_3,5,540,3,3,-0.022489567,0.006250159,0.335170707,-0.00223996,-0.023722895,-0.000109091,4.024327,-0.2471064,3.762186,-0.05454028,-0.346744,-0.05127307
7_585_1,7,585,1,3,-0.030417651,0.013578541,0.334289749,-0.002189719,-0.023701435,0.000325478,4.016938,-0.3471738,3.763451,0.009072295,-0.3374689,-0.1345631
11_585_0,11,585,0,3,-0.050987783,0.015509475,0.333388243,-0.002498464,-0.023340369,0.000413442,4.009526,-0.5966744,3.70947,0.02360512,-0.3842646,-0.1583924
7_525_3,7,525,3,3,-0.03243811,0.005693478,0.333292989,-0.002483258,-0.023360027,-0.000209137,4.003738,-0.3680821,3.706269,-0.06724667,-0.3847879,-0.04698493
9_675_0,9,675,0,3,-0.038512433,0.011883943,0.333243813,-0.002151734,-0.024526654,0.000370397,4.005747,-0.4496956,3.897498,0.001362271,-0.327543,-0.1038094
11_720_-1,11,720,-1,3,-0.048586392,0.014272954,0.332837318,-0.002333633,-0.024518805,0.000480815,4.002726,-0.5742378,3.899603,0.01060186,-0.352962,-0.126806
3_750.0_5,3,750,5,2.5,-0.008899176,-0.013805625,0.332657027,-0.001308687,-0.026156486,-0.001940847,5.740825,-0.1215128,5.961615,-0.5279805,-0.2831877,0.2933526
1_783.75_3,1,783.75,3,2.75,0.000848345,-0.002131935,0.332481943,-0.000934186,-0.02601939,-0.00099868,4.742615,0.03707998,4.903265,-0.2685971,-0.1669302,0.08027582
5_618.75_5,5,618.75,5,2.75,-0.020800502,-0.007264275,0.332052981,-0.001878858,-0.025265611,-0.001199881,4.741118,-0.2687103,4.763956,-0.2785835,-0.3417544,0.1395006
9_630_0,9,630,0,3,-0.038862066,0.014275733,0.331951393,-0.002191442,-0.02389203,0.000502966,3.99065,-0.4525872,3.79678,0.03013575,-0.3353561,-0.1367228
9_825.0_0,9,825,0,2.75,-0.036862026,0.006853725,0.331812316,-0.002114455,-0.025109897,-0.000191181,4.745104,-0.5164706,4.749019,-0.1398211,-0.3755695,-0.02791845
3_660.0_5,3,660,5,2.75,-0.009894221,-0.008790589,0.331765836,-0.001577808,-0.025788269,-0.001373516,4.734021,-0.1128034,4.859872,-0.315793,-0.286229,0.1620212
7_701.25_3,7,701.25,3,2.75,-0.028544489,-0.002562025,0.331346275,-0.001967693,-0.025528446,-0.000907172,4.73339,-0.3858577,4.817827,-0.240641,-0.35485,0.08372224
5_810_-1,5,810,-1,3,-0.016087006,0.015931059,0.331147391,-0.001582201,-0.024569513,0.000656121,3.981138,-0.1855381,3.907643,0.01952167,-0.2389766,-0.1368452
3_540_3,3,540,3,3,-0.013071049,0.007324647,0.331112681,-0.002062356,-0.023560853,-1.87E-05,3.973628,-0.1323822,3.734726,-0.04046017,-0.3197818,-0.06466776
5_630_1,5,630,1,3,-0.019408964,0.011279639,0.331064102,-0.001864831,-0.024189847,0.000446705,3.976674,-0.2152777,3.840183,0.02057256,-0.286382,-0.1016855
5_825.0_1,5,825,1,2.75,-0.017287235,0.004572115,0.330722279,-0.001590587,-0.025406465,-0.000405028,4.725079,-0.2315219,4.798567,-0.1774421,-0.2835803,0.001318975
11_660.0_3,11,660,3,2.75,-0.049438621,-0.003581534,0.330644529,-0.002425038,-0.025283547,-0.001041487,4.726759,-0.6863048,4.774745,-0.2558342,-0.4388638,0.09285468
7_577.5_5,7,577.5,5,2.75,-0.030726545,-0.006104211,0.330478396,-0.002257991,-0.024416005,-0.00122477,4.721903,-0.411114,4.606136,-0.2788203,-0.412737,0.119255
3_765_0,3,765,0,3,-0.007245537,0.01406077,0.329272914,-0.001380043,-0.024682287,0.000512785,3.95524,-0.073995,3.920095,0.004580955,-0.20967,-0.1191455
5_720_0,5,720,0,3,-0.017594276,0.012951325,0.329259626,-0.001630148,-0.024452104,0.000472278,3.955771,-0.1984883,3.883986,0.007973505,-0.2478553,-0.1117987
7_765_-1,7,765,-1,3,-0.026503708,0.015085565,0.329238918,-0.001805456,-0.024284942,0.000619673,3.958566,-0.309439,3.862168,0.02305597,-0.2727199,-0.1316963
3_855_-1,3,855,-1,3,-0.004904726,0.01615733,0.329046795,-0.001209921,-0.024473011,0.000629225,3.955834,-0.05195115,3.892542,0.005302218,-0.1823529,-0.1338331
5_525_3,5,525,3,3,-0.022426252,0.00650995,0.328816865,-0.002236021,-0.023155501,-7.77E-05,3.948146,-0.2466828,3.672303,-0.04773991,-0.3464622,-0.05566245
9_585_0,9,585,0,3,-0.039577712,0.017117203,0.328485358,-0.00230989,-0.023059969,0.000524293,3.949301,-0.4599681,3.664258,0.04008471,-0.3556341,-0.177615
3_675_1,3,675,1,3,-0.009159114,0.011669459,0.328313234,-0.001561847,-0.024478421,0.000389672,3.941819,-0.09178089,3.884032,0.00241939,-0.239297,-0.1015894
7_783.75_1,7,783.75,1,2.75,-0.027285098,0.003860007,0.328310303,-0.001837129,-0.025057923,-0.000413518,4.692126,-0.3746458,4.73394,-0.1677831,-0.3283409,0.00497106
5_585_1,5,585,1,3,-0.020178206,0.013873372,0.328249315,-0.001994402,-0.023346073,0.000457321,3.943036,-0.2235163,3.706018,0.02845326,-0.3078362,-0.1375151
7_675_0,7,675,0,3,-0.02801634,0.012930759,0.328152325,-0.001922691,-0.024161835,0.000491556,3.943998,-0.323078,3.839074,0.01971534,-0.2932203,-0.1164937
3_742.5_3,3,742.5,3,2.75,-0.008835307,-0.001005484,0.327913994,-0.001383075,-0.025488148,-0.000819979,4.680119,-0.1017598,4.805984,-0.2332025,-0.2485387,0.06544993
9_900_-3,9,900,-3,3,-0.034948796,0.017981417,0.327832538,-0.002059801,-0.023712042,0.000676754,3.947418,-0.4203595,3.782235,0.006285582,-0.306208,-0.1497136
1_720_1,1,720,1,3,-0.000615961,0.012303543,0.327785963,-0.001094011,-0.024743064,0.000336512,3.933117,0.01141437,3.923466,-0.0129928,-0.1669132,-0.1052903
9_720_-1,9,720,-1,3,-0.037293394,0.014734481,0.327568548,-0.002060461,-0.024079828,0.00058728,3.938907,-0.4385917,3.829319,0.02724206,-0.3120984,-0.1329346
1_810_0,1,810,0,3,0.003556034,0.016278056,0.327373885,-0.001125042,-0.024650237,0.000615622,3.931849,0.05516799,3.914861,0.009689757,-0.1711177,-0.1386365
11_540_1,11,540,1,3,-0.051427584,0.011713066,0.327340798,-0.002605788,-0.02268861,0.000156894,3.936181,-0.6005516,3.60417,-0.01040907,-0.4024739,-0.1175301
11_742.5_1,11,742.5,1,2.75,-0.04810518,0.002639951,0.32730276,-0.002330492,-0.024928009,-0.000558006,4.67993,-0.6728968,4.711234,-0.1845311,-0.4175501,0.01679487
5_630_5,-5,630,5,3,0.035109239,-0.00946295,0.326628333,-0.000777836,-0.024761871,-0.001224097,3.910146,0.4386494,3.915514,-0.2308312,-0.1214302,0.1300868
3_585_1,3,585,1,3,-0.010748388,0.015296299,0.326444081,-0.001803925,-0.023257221,0.000614313,3.919856,-0.1077657,3.690256,0.05257289,-0.2790356,-0.153881
1_540_3,1,540,3,3,-0.003928684,0.006341818,0.326325473,-0.001780833,-0.023307424,-1.11E-05,3.913941,-0.02076831,3.692545,-0.03661639,-0.2766004,-0.05518088
11_783.75_0,11,783.75,0,2.75,-0.047739649,0.006290382,0.326199558,-0.00229152,-0.024670167,-0.000268192,4.665587,-0.6712629,4.665895,-0.1425296,-0.4079675,-0.02664955
11_536.25_5,11,536.25,5,2.75,-0.051207447,-0.007029618,0.326097381,-0.002695284,-0.023505769,-0.00136616,4.663996,-0.7060908,4.4374,-0.2972528,-0.4947574,0.1264063
1_660.0_5,1,660,5,2.75,-0.000403941,-0.009079877,0.325869815,-0.001309563,-0.025451155,-0.001415368,4.648115,0.02467263,4.79448,-0.3198025,-0.238147,0.1616497
7_585_0,7,585,0,3,-0.029535664,0.017245998,0.325830595,-0.002134646,-0.022843136,0.000654145,3.916575,-0.338543,3.629262,0.06027418,-0.329396,-0.1794119
11_855_-3,11,855,-3,3,-0.045723965,0.018427839,0.325466406,-0.002317857,-0.023586278,0.000721058,3.918613,-0.548341,3.76131,0.02233619,-0.3451645,-0.1599227
3_525_3,3,525,3,3,-0.013267871,0.007357631,0.325354765,-0.002078602,-0.02303312,1.49E-05,3.904638,-0.134977,3.65115,-0.03329982,-0.3226358,-0.06626807
9_660.0_3,9,660,3,2.75,-0.038320321,-0.002523375,0.325282015,-0.002156942,-0.024843018,-0.000873155,4.649137,-0.5267273,4.690639,-0.2255238,-0.3901974,0.07798888
11_630_-1,11,630,-1,3,-0.048037132,0.0180194,0.325081793,-0.002278691,-0.023173337,0.00070209,3.910372,-0.564864,3.685351,0.06202151,-0.3480675,-0.1819978
5_701.25_3,5,701.25,3,2.75,-0.018535082,-0.001229574,0.324800499,-0.001682982,-0.025044613,-0.000781718,4.638178,-0.2420049,4.724669,-0.2183845,-0.3034092,0.0646608
1_900_-1,1,900,-1,3,0.005661238,0.017666418,0.324739561,-0.000782379,-0.024292338,0.000615209,3.903915,0.07425358,3.863558,-0.006822685,-0.1175465,-0.1460114
5_577.5_5,5,577.5,5,2.75,-0.020922117,-0.005074011,0.324388822,-0.002006447,-0.024038684,-0.001107945,4.632546,-0.2698057,4.532846,-0.2565608,-0.3668125,0.1040479
11_618.75_3,11,618.75,3,2.75,-0.049005721,-0.001453625,0.324145709,-0.002390055,-0.024357696,-0.000835914,4.634992,-0.679528,4.60086,-0.2099213,-0.4341837,0.05827903
9_540_1,9,540,1,3,-0.040474924,0.012873271,0.324080943,-0.00243133,-0.022532428,0.000286102,3.895921,-0.4687265,3.578862,0.009377279,-0.3759631,-0.1314414
11_675_-1,11,675,-1,3,-0.047517174,0.015084099,0.324002161,-0.002266461,-0.023658101,0.000596145,3.896963,-0.5604589,3.762707,0.03675249,-0.3441856,-0.1418141
1_750.0_5,1,750,5,2.5,0.001101526,-0.013784145,0.323917759,-0.001005263,-0.025606415,-0.001975697,5.588351,0.05267587,5.834509,-0.5303617,-0.2177202,0.2866691
7_630_0,7,630,0,3,-0.028193196,0.014030273,0.323433332,-0.001942391,-0.023401702,0.000633301,3.887652,-0.3242498,3.718471,0.04990544,-0.2976274,-0.1345628
5_765_-1,5,765,-1,3,-0.016513434,0.016278009,0.322735512,-0.00154558,-0.023839463,0.000730954,3.880016,-0.1896608,3.791077,0.04033076,-0.2342878,-0.146824
7_825.0_0,7,825,0,2.75,-0.025621996,0.008032926,0.322640751,-0.001831385,-0.024437508,-6.92E-05,4.613673,-0.3559724,4.62175,-0.1179117,-0.3258354,-0.04504471
1_540_3,-1,540,3,3,0.004587544,0.002891569,0.321968988,-0.001579125,-0.023086017,-0.000154314,3.858963,0.0821802,3.655087,-0.05657626,-0.2464567,-0.01767959
9_536.25_5,9,536.25,5,2.75,-0.040514813,-0.005228126,0.321900661,-0.002474898,-0.023272996,-0.001204954,4.602099,-0.5531358,4.392318,-0.2681675,-0.4540489,0.1008007
3_618.75_5,3,618.75,5,2.75,-0.010276921,-0.007364416,0.321855475,-0.00160872,-0.024705118,-0.001153477,4.593501,-0.1182734,4.656473,-0.2682992,-0.2928694,0.13793
5_585_5,-5,585,5,3,0.032757462,-0.009042198,0.321835157,-0.001083807,-0.023674863,-0.001109313,3.85247,0.4109455,3.743496,-0.2075691,-0.1697506,0.1234538
9_742.5_1,9,742.5,1,2.75,-0.036922364,0.003638058,0.321629341,-0.002054896,-0.024461904,-0.000418615,4.59819,-0.5128589,4.622651,-0.1594493,-0.3682356,0.002536234
11_585_-1,11,585,-1,3,-0.0487724,0.020072846,0.321530525,-0.002358331,-0.022379344,0.000729294,3.867916,-0.572209,3.558691,0.07305239,-0.3624213,-0.2134503
5_712.5_5,5,712.5,5,2.5,-0.018386519,-0.012674468,0.321345316,-0.001574643,-0.025272711,-0.001805973,5.54811,-0.2866323,5.762331,-0.4939369,-0.3414129,0.2735633
1_525_3,1,525,3,3,-0.004227717,0.00660626,0.321165305,-0.001804254,-0.022819673,1.71E-05,3.852103,-0.02468141,3.615303,-0.03034179,-0.2805257,-0.05968651
3_630_1,3,630,1,3,-0.009446532,0.012247444,0.320721049,-0.001614876,-0.023613128,0.00053088,3.851043,-0.09449794,3.746963,0.03194392,-0.2484317,-0.1131666
5_675_0,5,675,0,3,-0.017507049,0.013772746,0.320664549,-0.00163883,-0.02360727,0.000602275,3.852896,-0.1966567,3.749919,0.03606709,-0.2501886,-0.1265291
7_720_-1,7,720,-1,3,-0.0262797,0.015583217,0.320612057,-0.001768209,-0.023513882,0.000705807,3.855024,-0.3057585,3.739263,0.04510286,-0.2681593,-0.1432462
3_720_0,3,720,0,3,-0.007369852,0.014607805,0.320580021,-0.001401749,-0.023876927,0.000617249,3.851045,-0.07459535,3.792128,0.02935905,-0.2138959,-0.1310301
7_536.25_5,7,536.25,5,2.75,-0.030795455,-0.005251636,0.320547521,-0.00233238,-0.023151593,-0.001048111,4.581306,-0.4124141,4.368299,-0.2391284,-0.4283945,0.1015079
3_825.0_1,3,825,1,2.75,-0.007685305,0.005678249,0.320442522,-0.001204919,-0.024614796,-0.000298023,4.577173,-0.09352348,4.647773,-0.1583324,-0.2146002,-0.0147373
9_675.0_5,9,675,5,2.5,-0.037890604,-0.013410611,0.320358976,-0.002099694,-0.024994238,-0.001835869,5.536206,-0.626916,5.703806,-0.4934065,-0.4573104,0.2831085
3_810_-1,3,810,-1,3,-0.005180234,0.016474991,0.320349196,-0.001213873,-0.023723101,0.000712286,3.851247,-0.05414866,3.772869,0.0275696,-0.1837702,-0.1435799
7_660.0_3,7,660,3,2.75,-0.027836669,-0.001115945,0.320302445,-0.001941189,-0.024466438,-0.000717441,4.576663,-0.3757551,4.618296,-0.1977283,-0.3512512,0.05834991
11_825.0_-1,11,825,-1,2.75,-0.045767617,0.01036189,0.320165345,-0.002325363,-0.023997821,5.83E-05,4.581786,-0.6481412,4.544158,-0.09757933,-0.4111712,-0.07430569
5_783.75_1,5,783.75,1,2.75,-0.016887275,0.005398954,0.320119271,-0.001570301,-0.024481084,-0.000275006,4.574187,-0.2253956,4.624108,-0.1438668,-0.2810245,-0.0165172
1_765_0,1,765,0,3,0.002478837,0.016778915,0.32010828,-0.001162527,-0.024024046,0.00071484,3.844381,0.0432575,3.81477,0.0343527,-0.1775188,-0.1504944
11_577.5_3,11,577.5,3,2.75,-0.049208225,0.001033566,0.320038602,-0.002453519,-0.023272306,-0.000763127,4.577711,-0.6812931,4.396036,-0.1904754,-0.4479551,0.01666814
11_525_1,11,525,1,3,-0.050600665,0.01205856,0.319852615,-0.002575858,-0.022083995,0.000173662,3.846199,-0.591005,3.508164,-0.006073846,-0.3981857,-0.1230582
1_742.5_3,1,742.5,3,2.75,0.000502966,-0.000793816,0.319847911,-0.000982807,-0.024919622,-0.00081302,4.563025,0.0321885,4.696497,-0.2266271,-0.1766026,0.05674346
1_675_1,1,675,1,3,-0.001042224,0.012831758,0.319674672,-0.001164958,-0.023915503,0.000462454,3.836031,0.007151124,3.792264,0.01398729,-0.1785784,-0.1162036
7_540_1,7,540,1,3,-0.029997536,0.013490801,0.318937515,-0.002206244,-0.022233397,0.000404034,3.832781,-0.3423302,3.530491,0.02694249,-0.341158,-0.1376142
9_675_-1,9,675,-1,3,-0.036552113,0.015519975,0.318935991,-0.002017918,-0.023250264,0.000699693,3.835502,-0.4287352,3.697381,0.05265403,-0.3068556,-0.1474179
9_783.75_0,9,783.75,0,2.75,-0.035839154,0.00726022,0.318235803,-0.002027532,-0.024033993,-0.000109754,4.551308,-0.5013379,4.545389,-0.1142934,-0.3613016,-0.04056286
5_585_0,5,585,0,3,-0.018972808,0.017064537,0.3180397,-0.001846967,-0.022346211,0.000785397,3.821646,-0.2113961,3.549312,0.07963019,-0.2850254,-0.1751078
3_577.5_5,3,577.5,5,2.75,-0.01130842,-0.005227384,0.318007806,-0.001799621,-0.023751754,-0.001067826,4.539017,-0.1317104,4.476896,-0.2470461,-0.3296248,0.1040926
9_855_-3,9,855,-3,3,-0.033702228,0.018938102,0.317635486,-0.001997211,-0.02287937,0.000838611,3.824876,-0.4041498,3.649305,0.04152314,-0.2981968,-0.167542
11_540_0,11,540,0,3,-0.049562492,0.01620796,0.317410315,-0.002464395,-0.021905239,0.000472631,3.817699,-0.579717,3.481467,0.03875743,-0.3803245,-0.1710059
9_525_1,9,525,1,3,-0.040015923,0.013019223,0.317346141,-0.00241053,-0.021958568,0.000303131,3.81504,-0.4635054,3.487769,0.01384106,-0.3730639,-0.1343478
7_900_-3,7,900,-3,3,-0.022926409,0.018325654,0.31733539,-0.001678805,-0.02283135,0.000771436,3.821562,-0.276257,3.642563,0.02208707,-0.2499894,-0.1556399
1_855_-1,1,855,-1,3,0.004954045,0.017856139,0.317139213,-0.000821367,-0.023647928,0.000692212,3.812193,0.06720558,3.760273,0.01483637,-0.1241526,-0.1544468
9_577.5_3,9,577.5,3,2.75,-0.038797417,0.00146576,0.317031494,-0.00225512,-0.023038317,-0.000594415,4.533599,-0.5314607,4.351062,-0.1597091,-0.4119758,0.01119718
3_701.25_3,3,701.25,3,2.75,-0.009015851,0.00034448,0.316791618,-0.001398746,-0.024481585,-0.000645748,4.52208,-0.1044803,4.616723,-0.1929889,-0.2523322,0.04137561
9_618.75_3,9,618.75,3,2.75,-0.037746916,-0.00089324,0.316344415,-0.002127684,-0.023851059,-0.000672996,4.522427,-0.5183904,4.504281,-0.1808449,-0.3862777,0.05028684
1_618.75_5,1,618.75,5,2.75,-0.001110479,-0.007742242,0.315921427,-0.001354431,-0.024385665,-0.001189045,4.506994,0.01472517,4.594394,-0.2715382,-0.2471374,0.1391478
5_540_1,5,540,1,3,-0.020209751,0.014135128,0.315890076,-0.002029151,-0.02206365,0.000535362,3.794824,-0.2238212,3.502499,0.04683596,-0.3143041,-0.1449378
11_810_-3,11,810,-3,3,-0.044153569,0.019149342,0.315657753,-0.002239591,-0.022777507,0.000856445,3.800721,-0.52813,3.632036,0.05384837,-0.3352074,-0.1753588
11_701.25_1,11,701.25,1,2.75,-0.046525405,0.003643362,0.315475998,-0.002251125,-0.023896215,-0.00041642,4.511715,-0.6501027,4.516845,-0.1495581,-0.4046802,-0.003146464
7_742.5_1,7,742.5,1,2.75,-0.026471495,0.004661336,0.315310998,-0.001793408,-0.023975696,-0.000294069,4.506987,-0.3627475,4.529822,-0.1368129,-0.321601,-0.01209085
9_585_-1,9,585,-1,3,-0.037620714,0.020130357,0.314919367,-0.002124449,-0.021972636,0.000829192,3.787375,-0.4389288,3.493526,0.0878682,-0.3265984,-0.2130946
3_712.5_5,3,712.5,5,2.5,-0.008553361,-0.011943323,0.314843365,-0.001291366,-0.024775632,-0.001725651,5.434164,-0.1161458,5.64757,-0.4721995,-0.2801454,0.2568792
5_720_-1,5,720,-1,3,-0.016496958,0.016617279,0.314545539,-0.001534729,-0.023093956,0.000808636,3.781593,-0.1884644,3.672191,0.0608181,-0.233567,-0.156181
11_450_5,11,450,5,3,-0.052515147,-0.004601561,0.314418701,-0.002777919,-0.021280768,-0.000970546,3.779323,-0.6094432,3.376231,-0.1780636,-0.4314283,0.07162428
5_660.0_3,5,660,3,2.75,-0.018256482,9.50E-05,0.314410627,-0.001678981,-0.024045617,-0.000596953,4.490791,-0.2379219,4.537012,-0.1764163,-0.3037854,0.04109598
9_630_-1,9,630,-1,3,-0.036460785,0.016663734,0.314272414,-0.002014504,-0.022539978,0.00081912,3.779695,-0.4265087,3.584374,0.0792723,-0.3078072,-0.1659869
1_720_0,1,720,0,3,0.000973975,0.017012354,0.314059563,-0.001186374,-0.023464578,0.000785426,3.771292,0.02637532,3.724955,0.05419851,-0.1818102,-0.1589479
5_630_0,5,630,0,3,-0.017689941,0.01452891,0.31388356,-0.001672931,-0.022802518,0.000729532,3.771722,-0.1978828,3.622166,0.06356355,-0.2565459,-0.1403941
9_712.5_3,9,712.5,3,2.5,-0.036727776,-0.005775792,0.313613887,-0.001979999,-0.024082688,-0.001198515,5.421478,-0.6123356,5.49997,-0.3591314,-0.4292332,0.1581698
1_577.5_5,1,577.5,5,2.75,-0.002483382,-0.005979355,0.313548273,-0.00151892,-0.023615018,-0.001041873,4.47326,-0.003031044,4.449395,-0.2383301,-0.2786288,0.1117224
7_525_1,7,525,1,3,-0.029829311,0.013630311,0.313302803,-0.002200559,-0.021731999,0.00042144,3.765143,-0.3404877,3.450903,0.03162976,-0.3406268,-0.1406046
5_536.25_5,5,536.25,5,2.75,-0.020822156,-0.003281077,0.312994812,-0.002057204,-0.022779678,-0.000949213,4.47081,-0.2690154,4.296043,-0.2209197,-0.3776018,0.07333441
7_783.75_0,7,783.75,0,2.75,-0.025382648,0.008602668,0.312930304,-0.00177798,-0.023622168,2.59E-05,4.475184,-0.3516123,4.467389,-0.08961128,-0.3175186,-0.06011026
1_630_1,1,630,1,3,-0.001630773,0.01316643,0.312868611,-0.001251193,-0.023132582,0.000583041,3.754557,0.001104068,3.668126,0.0400592,-0.1926652,-0.1247803
7_675_-1,7,675,-1,3,-0.026010916,0.016182326,0.31263132,-0.00174822,-0.022752831,0.000803967,3.759316,-0.3015304,3.618093,0.0683669,-0.2662055,-0.1555131
7_577.5_3,7,577.5,3,2.75,-0.028590232,0.00237544,0.312617033,-0.002075069,-0.02276681,-0.000434424,4.468936,-0.3843481,4.298705,-0.1308193,-0.3792469,-0.000720372
3_675_0,3,675,0,3,-0.00759128,0.015154606,0.31257868,-0.001431307,-0.023091466,0.000724844,3.755075,-0.07627384,3.66723,0.05417742,-0.2193019,-0.1426649
3_765_-1,3,765,-1,3,-0.005545146,0.016867591,0.312463951,-0.00123385,-0.023036453,0.000799597,3.756377,-0.0574169,3.663217,0.05018248,-0.1876763,-0.1539717
5_825.0_0,5,825,0,2.75,-0.015279908,0.008443401,0.312435408,-0.001449076,-0.023684972,-1.86E-05,4.466666,-0.20778,4.478056,-0.1083574,-0.257729,-0.05207461
9_450_5,9,450,5,3,-0.04243581,-0.004065211,0.31236327,-0.002617745,-0.021179664,-0.000812629,3.753006,-0.4883313,3.359291,-0.1535849,-0.4066619,0.06509729
11_742.5_0,11,742.5,0,2.75,-0.045846893,0.006739798,0.312216253,-0.002199581,-0.023546357,-0.000175282,4.466234,-0.6437869,4.453617,-0.1158226,-0.3929224,-0.03938228
1_585_1,1,585,1,3,-0.002852938,0.014029433,0.312189202,-0.001361121,-0.022540388,0.000725257,3.746482,-0.0128804,3.574167,0.07050617,-0.2104426,-0.1396014
9_540_0,9,540,0,3,-0.038431232,0.017305829,0.312128024,-0.002281038,-0.021629144,0.000583521,3.752891,-0.4463983,3.437,0.05497715,-0.3522161,-0.1834045
3_783.75_1,3,783.75,1,2.75,-0.007891167,0.006697438,0.311899166,-0.001217762,-0.023848634,-0.000161748,4.455512,-0.09591063,4.503105,-0.1237528,-0.2178871,-0.03518199
3_540_1,3,540,1,3,-0.011137507,0.014749062,0.311652599,-0.001846742,-0.021844449,0.000652537,3.742281,-0.113447,3.466153,0.06427869,-0.2865573,-0.152104
9_825.0_-1,9,825,-1,2.75,-0.033774827,0.011047636,0.311530838,-0.002021953,-0.023289738,0.000208736,4.45865,-0.4769668,4.410645,-0.06883656,-0.3582096,-0.08545531
7_618.75_3,7,618.75,3,2.75,-0.027484499,0.000337182,0.31143628,-0.001925732,-0.023488582,-0.00052543,4.451039,-0.370542,4.434633,-0.1544094,-0.3497287,0.03290034
7_675.0_5,7,675,5,2.5,-0.027002939,-0.01218996,0.310981181,-0.001820536,-0.024394326,-0.00171545,5.372254,-0.4377151,5.565173,-0.4674735,-0.3959337,0.2622582
7_450_5,7,450,5,3,-0.032960183,-0.003605989,0.310873476,-0.002476969,-0.021162595,-0.000673506,3.733526,-0.3737296,3.355671,-0.132126,-0.3850472,0.05963098
9_701.25_1,9,701.25,1,2.75,-0.035815093,0.004572799,0.310513086,-0.001999274,-0.0234723,-0.000281173,4.440125,-0.4967425,4.436259,-0.1253077,-0.3595517,-0.01636202
7_585_-1,7,585,-1,3,-0.027277182,0.019898604,0.3104975,-0.001894454,-0.02160719,0.000958735,3.733736,-0.3138763,3.435193,0.1077514,-0.2916323,-0.2093403
5_525_1,5,525,1,3,-0.020136538,0.014435621,0.310326622,-0.002028487,-0.021589027,0.000547373,3.728016,-0.2231133,3.427153,0.05065718,-0.3145032,-0.1498778
11_525_0,11,525,0,3,-0.048761025,0.016512419,0.309945436,-0.002436991,-0.021319105,0.000475941,3.727957,-0.5704421,3.388343,0.0409252,-0.3763885,-0.1758363
1_810_-1,1,810,-1,3,0.004085964,0.018099123,0.309906202,-0.00085557,-0.023022478,0.000775706,3.72486,0.05809963,3.659967,0.03702265,-0.1299695,-0.1631765
1_540_1,1,540,1,3,-0.003763658,0.014695263,0.309255493,-0.00158544,-0.021749501,0.000740459,3.711218,-0.02240159,3.448494,0.07866417,-0.2464576,-0.1519447
1_701.25_3,1,701.25,3,2.75,8.64E-05,0.000421207,0.309186252,-0.001035558,-0.02394966,-0.00064233,4.411586,0.02647853,4.514216,-0.1876639,-0.1870339,0.03509075
5_540_5,-5,540,5,3,0.030744705,-0.008334978,0.309114197,-0.001246329,-0.022258691,-0.00094735,3.700304,0.3870411,3.519513,-0.1780639,-0.195536,0.1126057
1_825.0_1,1,825,1,2.75,0.001407947,0.007647752,0.309029504,-0.000807388,-0.02383377,-0.000172374,4.412867,0.03745879,4.498627,-0.1344876,-0.1433609,-0.04337701
7_540_0,7,540,0,3,-0.028624003,0.017286017,0.308800243,-0.002078427,-0.021386656,0.000707773,3.712021,-0.32811,3.397954,0.07417145,-0.3213597,-0.1829201
9_810_-3,9,810,-3,3,-0.032719429,0.019517502,0.308687711,-0.001941865,-0.022158977,0.000948509,3.717147,-0.3907543,3.533874,0.06907506,-0.2914671,-0.1811915
5_742.5_1,5,742.5,1,2.75,-0.016577235,0.006161142,0.308631048,-0.001550791,-0.023508744,-0.000151433,4.410634,-0.2206106,4.440789,-0.1120783,-0.2785456,-0.03299553
5_450_5,5,450,5,3,-0.023971762,-0.002979643,0.308451882,-0.002326603,-0.021152474,-0.000597326,3.702701,-0.2643392,3.352664,-0.119881,-0.3619807,0.05161173
7_855_-3,7,855,-3,3,-0.022214264,0.019159025,0.308435362,-0.001640765,-0.022115735,0.00091074,3.714527,-0.2661827,3.528082,0.05387876,-0.2455067,-0.1719214
5_900_-3,5,900,-3,3,-0.012185492,0.019036709,0.308242078,-0.001383228,-0.022159812,0.000816045,3.712282,-0.1473481,3.535519,0.03047636,-0.2072097,-0.1661294
5_577.5_3,5,577.5,3,2.75,-0.019282816,0.004787244,0.308176411,-0.001796469,-0.022581762,-0.00028579,4.403629,-0.2497413,4.261944,-0.1037839,-0.3281303,-0.03451517
